"facility_id","name","category","nearest_node_id","address","lat","lng"
"F00001","프라임기획오룡골가든","음식점","ST001","충청남도 아산시 영인면 아산호로638번길 35-7","36.908248","126.973193"
"F00002","놀부식당","음식점","ST001","충청남도 아산시 영인면 아산호로 652","36.911448","126.975436"
"F00003","우압곰탕집","음식점","ST001","충청남도 아산시 영인면 아산호로 665","36.912088","126.976928"
"F00004","대선제분구내식당","음식점","ST001","충청남도 아산시 영인면 아산호로 680","36.909304","126.977984"
"F00005","신봉식당","음식점","ST001","충청남도 아산시 영인면 장영실로 719","36.900069","126.989195"
"F00006","이마트24SMART아산영인신봉점","편의점","ST001","충청남도 아산시 영인면 장영실로 719","36.900069","126.989195"
"F00007","남창옛날통닭","음식점","ST001","충청남도 아산시 둔포면 아산호로 900-1","36.918677","127.001167"
"F00008","세븐일레븐아산신남","편의점","ST001","충청남도 아산시 둔포면 아산호로 900-1","36.918677","127.001167"
"F00009","삼성웰스토리세정주","음식점","ST001","충청남도 아산시 둔포면 아산호로840번길 65-20","36.909873","127.001358"
"F00010","돼지촌국밥","음식점","ST001","충청남도 아산시 둔포면 아산호로 904","36.918794","127.001369"
"F00011","동원홈푸드삼조쎌텍점주","음식점","ST001","충청남도 아산시 영인면 신봉길 288","36.902980","127.002435"
"F00012","약선장어직판장","음식점","ST001","충청남도 아산시 둔포면 아산호로840번길 65-40","36.910378","127.002839"
"F00013","동원홈푸드두올물산점주","음식점","ST001","충청남도 아산시 영인면 윤보선로 230","36.894816","127.005576"
"F00014","수라간한식당","음식점","ST001","충청남도 아산시 둔포면 장영실로 929-33","36.910982","127.005667"
"F00015","동원홈푸드동원아산(동원F&B)점주","음식점","ST001","충청남도 아산시 둔포면 윤보선로 320","36.899879","127.014653"
"F00016","세븐일레븐아산둔포신남점","편의점","ST001","충청남도 아산시 둔포면 윤보선로336번길 6","36.901249","127.014911"
"F00017","솔밭가든","음식점","ST001","충청남도 아산시 둔포면 아산호로 1030","36.923912","127.013894"
"F00018","서연커피","카페","ST001","충청남도 아산시 둔포면 윤보선로248번길 123","36.894490","127.018444"
"F00019","복주골오리한상","음식점","ST001","충청남도 아산시 음봉면 충무로 1134","36.874421","127.028612"
"F00020","김밥이야기","음식점","ST001","충청남도 아산시 둔포면 해위길52번길 35","36.896680","127.018747"
"F00021","한샘식당","음식점","ST001","충청남도 아산시 둔포면 윤보선로336번길 36","36.900861","127.017896"
"F00022","괴강어죽","음식점","ST001","충청남도 아산시 둔포면 충무로 1150","36.875700","127.029106"
"F00023","산촌보리밥","음식점","ST001","충청남도 아산시 둔포면 해위안길32번길 20","36.896572","127.019555"
"F00024","선유밴댕이","음식점","ST001","충청남도 아산시 둔포면 해위안길32번길 14","36.896671","127.019791"
"F00025","카나리아푸드","음식점","ST001","충청남도 아산시 둔포면 아산호로1082번길 16-17","36.923262","127.018922"
"F00026","정가네가마솥국밥","음식점","ST001","충청남도 아산시 둔포면 충무로 1179","36.878313","127.029455"
"F00027","세븐일레븐아산봉제","편의점","ST001","충청남도 아산시 둔포면 충무로 1179","36.878313","127.029455"
"F00028","에밀리의슈가","음식점","ST001","충청남도 아산시 둔포면 해위길 104","36.899833","127.021060"
"F00029","브라운에프엔비디오토모티브점","음식점","ST001","충청남도 아산시 둔포면 해위안길62번길 16","36.893868","127.022965"
"F00030","국수기행입장점","음식점","ST001","충청남도 천안시 서북구 입장면 망향로 1240","36.919672","127.234060"
"F00031","동춘당꽈배기입장점","음식점","ST001","충청남도 천안시 서북구 입장면 망향로 1240","36.919672","127.234060"
"F00032","이마트24천안입장","편의점","ST001","충청남도 천안시 서북구 입장면 망향로 1240","36.919645","127.234060"
"F00033","이모네식당","음식점","ST001","충청남도 아산시 둔포면 윤보선로 458","36.910502","127.020614"
"F00034","세븐일레븐아산둔포송용점","편의점","ST001","충청남도 아산시 둔포면 윤보선로 458","36.910502","127.020614"
"F00035","지에스25둔포공단점","편의점","ST001","충청남도 아산시 둔포면 윤보선로336번길 73","36.901807","127.022115"
"F00036","엄윤용얼큰한뼈해장국","음식점","ST001","충청남도 아산시 둔포면 아산호로 1103","36.927109","127.021628"
"F00037","한성공업식당","음식점","ST001","충청남도 아산시 둔포면 해위길 120","36.899031","127.023090"
"F00038","제이푸드","음식점","ST001","충청남도 아산시 둔포면 윤보선로336번길 71-27","36.903834","127.022261"
"F00039","세븐일레븐아산신영모닝빌점","편의점","ST001","충청남도 아산시 둔포면 윤보선로450번길 3","36.909709","127.021691"
"F00040","연못분식","음식점","ST001","충청남도 아산시 둔포면 해위안길 67-4","36.895652","127.024660"
"F00041","세븐일레븐아산둔포신항점","편의점","ST001","충청남도 아산시 둔포면 해위안길 79","36.895742","127.025288"
"F00042","지중해푸드","카페","ST001","충청남도 아산시 둔포면 충무로 1222-3","36.881899","127.031576"
"F00043","한솔푸드","음식점","ST001","충청남도 아산시 둔포면 윤보선로 523","36.915990","127.022534"
"F00044","정원푸드유한구내식당","음식점","ST001","충청남도 아산시 둔포면 윤보선로 520","36.915395","127.023084"
"F00045","김밥왕","음식점","ST001","충청남도 아산시 둔포면 윤보선로336번길 96","36.901401","127.024695"
"F00046","유주네국수집","음식점","ST001","충청남도 아산시 둔포면 윤보선로336번길 96","36.901401","127.024695"
"F00047","세븐일레븐아산신항점","편의점","ST001","충청남도 아산시 둔포면 윤보선로336번길 96","36.901401","127.024695"
"F00048","자매백반집","음식점","ST001","충청남도 아산시 둔포면 아산호로 1136","36.926550","127.024961"
"F00049","다가온","음식점","ST001","충청남도 아산시 둔포면 봉신로 96-22","36.880186","127.036130"
"F00050","사계의들녘","음식점","ST001","충청남도 아산시 둔포면 해위길 166","36.901968","127.027231"
"F00051","놀부부대찌개아산퍼스트","음식점","ST001","충청남도 아산시 둔포면 해위안길 127","36.896813","127.029058"
"F00052","떡담","음식점","ST001","충청남도 아산시 둔포면 해위안길 127","36.896813","127.029058"
"F00053","맘스터치퍼스트","음식점","ST001","충청남도 아산시 둔포면 해위안길 127","36.896813","127.029058"
"F00054","북촌손만두아산퍼스트","음식점","ST001","충청남도 아산시 둔포면 해위안길 127","36.896813","127.029058"
"F00055","브라운돈까스아산퍼스트","음식점","ST001","충청남도 아산시 둔포면 해위안길 127","36.896813","127.029058"
"F00056","신존떡볶이퍼스트","음식점","ST001","충청남도 아산시 둔포면 해위안길 127","36.896813","127.029058"
"F00057","쌍팔반점","음식점","ST001","충청남도 아산시 둔포면 해위안길 127","36.896813","127.029058"
"F00058","이태리면가게","음식점","ST001","충청남도 아산시 둔포면 해위안길 127","36.896813","127.029058"
"F00059","좋은음식차반","음식점","ST001","충청남도 아산시 둔포면 해위안길 127","36.896813","127.029058"
"F00060","한옥마을전주비빔퍼스트","음식점","ST001","충청남도 아산시 둔포면 해위안길 127","36.896813","127.029058"
"F00061","호미탐아산","음식점","ST001","충청남도 아산시 둔포면 해위안길 127","36.896813","127.029058"
"F00062","히노아지둔포퍼스트","음식점","ST001","충청남도 아산시 둔포면 해위안길 127","36.896813","127.029058"
"F00063","차이카페퍼스트","카페","ST001","충청남도 아산시 둔포면 해위안길 127","36.896813","127.029058"
"F00064","퍼스트빌리지카페","카페","ST001","충청남도 아산시 둔포면 해위안길 127","36.896813","127.029058"
"F00065","헤븐","카페","ST001","충청남도 아산시 둔포면 해위안길 127","36.896813","127.029058"
"F00066","입장커피&빵","카페","ST001","충청남도 천안시 서북구 입장면 성진로 874","36.915144","127.227380"
"F00067","일미식당","음식점","ST001","충청남도 아산시 둔포면 봉신로 104-3","36.880789","127.039259"
"F00068","김할매소머리곰탕","음식점","ST001","충청남도 천안시 서북구 입장면 입장로 254","36.923727","127.224645"
"F00069","아지트","음식점","ST001","충청남도 천안시 서북구 입장면 입장시장2길 26","36.914643","127.225022"
"F00070","만리장성","음식점","ST001","충청남도 천안시 서북구 입장면 성진로 852","36.915383","127.224890"
"F00071","오감탕","음식점","ST001","충청남도 천안시 서북구 입장면 성진로 846","36.915275","127.224530"
"F00072","통영바다장어구이","음식점","ST001","충청남도 천안시 서북구 입장면 입장시장3길 7","36.914898","127.224069"
"F00073","유리떡방앗간","음식점","ST001","충청남도 천안시 서북구 입장면 성진로 842","36.915321","127.224014"
"F00074","성지가든","음식점","ST001","충청남도 천안시 서북구 입장면 입장로 233-4","36.921981","127.223585"
"F00075","입장놀이터","PC방","ST001","충청남도 천안시 서북구 입장면 입장시장1길 25","36.914303","127.223877"
"F00076","성원커피호프","음식점","ST001","충청남도 천안시 서북구 입장면 입장시장3길 8","36.914835","127.223811"
"F00077","마실","음식점","ST001","충청남도 천안시 서북구 입장면 입장시장3길 6","36.915015","127.223677"
"F00078","명가낙지마당","음식점","ST001","충청남도 천안시 서북구 입장면 입장시장3길 6","36.915015","127.223677"
"F00079","어서와","음식점","ST001","충청남도 천안시 서북구 입장면 입장시장3길 6","36.915015","127.223677"
"F00080","시장길포차","카페","ST001","충청남도 천안시 서북구 입장면 입장시장3길 6","36.915015","127.223677"
"F00081","입장먹쇠","음식점","ST001","충청남도 천안시 서북구 입장면 입장시장2길 14","36.914484","127.223619"
"F00082","돼지먹어도돼지","음식점","ST001","충청남도 천안시 서북구 입장면 입장시장2길 13","36.914700","127.223508"
"F00083","성미네","음식점","ST001","충청남도 천안시 서북구 입장면 입장시장3길 8-3","36.914781","127.223497"
"F00084","빵순포차","음식점","ST001","충청남도 천안시 서북구 입장면 입장시장3길 4-3","36.914998","127.223419"
"F00085","정원칼국수","음식점","ST001","충청남도 천안시 서북구 입장면 입장시장3길 4-3","36.914998","127.223419"
"F00086","옛날길상통닭","음식점","ST001","충청남도 천안시 서북구 입장면 입장시장3길 8-5","36.914746","127.223362"
"F00087","베로니카","음식점","ST001","충청남도 천안시 서북구 입장면 입장시장2길 12","36.914466","127.223350"
"F00088","놀아줘","음식점","ST001","충청남도 천안시 서북구 입장면 입장시장3길 4-8","36.915007","127.223318"
"F00089","육식주의축산","음식점","ST001","충청남도 천안시 서북구 입장면 성진로 836","36.915268","127.223262"
"F00090","고깃집","음식점","ST001","충청남도 천안시 서북구 입장면 입장시장3길 9-2","36.914638","127.223238"
"F00091","쿠아쑥싸이마트","음식점","ST001","충청남도 천안시 서북구 입장면 입장시장3길 8-7","36.914737","127.223205"
"F00092","이디야천안입장점","카페","ST001","충청남도 천안시 서북구 입장면 성진로 834","36.915197","127.223094"
"F00093","백운동해매운탕","음식점","ST001","충청남도 천안시 서북구 입장면 입장시장2길 8-1","36.914395","127.223080"
"F00094","수다실","카페","ST001","충청남도 천안시 서북구 입장면 입장시장2길 9","36.914602","127.223036"
"F00095","마돈나","음식점","ST001","충청남도 천안시 서북구 입장면 입장시장3길 8-9","36.914692","127.223025"
"F00096","피자나라치킨공주","음식점","ST001","충청남도 천안시 서북구 입장면 성진로 832-1","36.915170","127.222925"
"F00097","돈이네삼겹살","음식점","ST001","충청남도 천안시 서북구 입장면 입장시장2길 7","36.914575","127.222912"
"F00098","큰세계야식포차","음식점","ST001","충청남도 천안시 서북구 입장면 성진로 832-4","36.914900","127.222790"
"F00099","비에이치씨천안입장점","음식점","ST001","충청남도 천안시 서북구 입장면 입장시장2길 6-2","36.914350","127.222743"
"F00100","만물치킨","음식점","ST001","충청남도 천안시 서북구 입장면 성진로 832-8","36.914801","127.222677"
"F00101","김밥사랑","음식점","ST001","충청남도 천안시 서북구 입장면 성진로 830","36.915125","127.222678"
"F00102","거봉다방","카페","ST001","충청남도 천안시 서북구 입장면 성진로 830","36.915125","127.222678"
"F00103","지에스25입장","편의점","ST001","충청남도 천안시 서북구 입장면 성진로 830","36.915125","127.222678"
"F00104","오공삼겹살","음식점","ST001","충청남도 천안시 서북구 입장면 입장시장2길 5","36.914531","127.222553"
"F00105","주전부리옛날과자","음식점","ST001","충청남도 천안시 서북구 입장면 입장로 158","36.915036","127.222543"
"F00106","그때그시절","음식점","ST001","충청남도 천안시 서북구 입장면 입장로 156","36.914927","127.222532"
"F00107","입장에서먹자","음식점","ST001","충청남도 천안시 서북구 입장면 입장시장2길 4","36.914279","127.222508"
"F00108","입장참숯화로구이","음식점","ST001","충청남도 천안시 서북구 입장면 입장시장2길 4","36.914279","127.222508"
"F00109","화성다방","카페","ST001","충청남도 천안시 서북구 입장면 입장시장2길 4","36.914279","127.222508"
"F00110","새참생각","음식점","ST001","충청남도 천안시 서북구 입장면 입장로 167","36.916063","127.222490"
"F00111","치킨스타일","음식점","ST001","충청남도 천안시 서북구 입장면 입장로 167","36.916063","127.222490"
"F00112","입짱손맛","음식점","ST001","충청남도 천안시 서북구 입장면 입장천변1길 2","36.915748","127.222489"
"F00113","이마트24아산송용점","편의점","ST001","충청남도 아산시 둔포면 윤보선로 652-78","36.921583","127.031828"
"F00114","부산아구찜","음식점","ST001","충청남도 천안시 서북구 입장면 입장시장2길 3","36.914486","127.222452"
"F00115","술먹기좋은날","음식점","ST001","충청남도 천안시 서북구 입장면 입장시장2길 3","36.914486","127.222452"
"F00116","입장포차","음식점","ST001","충청남도 천안시 서북구 입장면 입장로 150","36.914549","127.222396"
"F00117","샬레","음식점","ST001","충청남도 천안시 서북구 입장면 입장로 157","36.915090","127.222364"
"F00118","대박커피호프","카페","ST001","충청남도 천안시 서북구 입장면 입장시장2길 2","36.914270","127.222339"
"F00119","미래네","음식점","ST001","충청남도 아산시 둔포면 관대길 37","36.902606","127.033133"
"F00120","부라크케밥","음식점","ST001","충청남도 천안시 서북구 입장면 입장로 144-1","36.913856","127.222271"
"F00121","이락푸드시스템","음식점","ST001","충청남도 천안시 서북구 입장면 입장로 249","36.924769","127.221618"
"F00122","자매삼계탕","음식점","ST001","충청남도 천안시 서북구 입장면 입장로 171","36.916307","127.222278"
"F00123","그집앞","음식점","ST001","충청남도 천안시 서북구 입장면 입장로 146","36.914108","127.222249"
"F00124","비비큐한마리반","음식점","ST001","충청남도 천안시 서북구 입장면 입장로 146","36.914108","127.222249"
"F00125","한잔더마시까","음식점","ST001","충청남도 천안시 서북구 입장면 입장로 146","36.914108","127.222249"
"F00126","햇살머믄꼬마김밥","음식점","ST001","충청남도 천안시 서북구 입장면 입장로 144","36.913937","127.222237"
"F00127","부대통닭","음식점","ST001","충청남도 천안시 서북구 입장면 입장로 151","36.914784","127.222217"
"F00128","전주일미집","음식점","ST001","충청남도 아산시 둔포면 관대길 45","36.903020","127.033223"
"F00129","세븐일레븐천안입장","편의점","ST001","충청남도 천안시 서북구 입장면 입장로 149-1","36.914640","127.222127"
"F00130","빽다방천안입장점","카페","ST001","충청남도 천안시 서북구 입장면 하장4길 2","36.914433","127.222026"
"F00131","숯불직화꼬치","음식점","ST001","충청남도 천안시 서북구 입장면 입장로 145","36.914154","127.221980"
"F00132","팔팔찌개백반","음식점","ST001","충청남도 천안시 서북구 입장면 하장4길 4-2","36.914514","127.221925"
"F00133","김밥나라","음식점","ST001","충청남도 천안시 서북구 입장면 하장4길 1","36.914244","127.221902"
"F00134","인생술집","카페","ST001","충청남도 천안시 서북구 입장면 하장4길 1","36.914244","127.221902"
"F00135","대덕뉴큰집","음식점","ST001","충청남도 아산시 둔포면 관대길 83-12","36.906787","127.032776"
"F00136","청화대한식뷔페","음식점","ST001","충청남도 아산시 둔포면 관대길 83-12","36.906787","127.032776"
"F00137","세븐일레븐아산둔포관대점","편의점","ST001","충청남도 아산시 둔포면 관대길 83-12","36.906787","127.032776"
"F00138","타타스베이글입장멜버른커피점","카페","ST001","충청남도 천안시 서북구 입장면 입장천변1길 6","36.915577","127.221905"
"F00139","신세계약국","약국","ST001","충청남도 아산시 둔포면 충무로 1396","36.890370","127.037737"
"F00140","번영식당","음식점","ST001","충청남도 아산시 둔포면 충무로 1392","36.896838","127.035307"
"F00141","신바람빵.만두와바람난치킨","음식점","ST001","충청남도 아산시 둔포면 충무로 1392","36.896838","127.035307"
"F00142","이마트24천안한창이지엠점","편의점","ST001","충청남도 천안시 서북구 입장면 입장로 247","36.923454","127.221244"
"F00143","부어라마셔라","음식점","ST001","충청남도 천안시 서북구 입장면 하장4길 6","36.914487","127.221723"
"F00144","브라보명품찹쌀꽈배기천안입장점","음식점","ST001","충청남도 천안시 서북구 입장면 하장4길 6","36.914487","127.221723"
"F00145","입장돈까스","음식점","ST001","충청남도 천안시 서북구 입장면 하장4길 6","36.914487","127.221723"
"F00146","준과자점","음식점","ST001","충청남도 천안시 서북구 입장면 하장4길 5","36.914235","127.221700"
"F00147","친구호프","음식점","ST001","충청남도 천안시 서북구 입장면 하장4길 5","36.914235","127.221700"
"F00148","지에스25둔포","편의점","ST001","충청남도 아산시 둔포면 충무로 1412","36.898695","127.034848"
"F00149","엄마식당","음식점","ST001","충청남도 아산시 둔포면 관대길 83-6","36.906805","127.033135"
"F00150","배불뚝곱창","음식점","ST001","충청남도 천안시 서북구 입장면 하장3길 15","36.914272","127.221475"
"F00151","베트남쌀국수","음식점","ST001","충청남도 천안시 서북구 입장면 하장3길 15","36.914272","127.221475"
"F00152","GS25둔포관대점","편의점","ST001","충청남도 아산시 둔포면 관대길 61","36.904669","127.033650"
"F00153","지에스25둔포관대점","편의점","ST001","충청남도 아산시 둔포면 관대길 61","36.904669","127.033650"
"F00154","이마트24아산둔포관대점","편의점","ST001","충청남도 아산시 둔포면 관대길 97","36.907679","127.033304"
"F00155","별보라","카페","ST001","충청남도 천안시 서북구 입장면 하장4길 11","36.914146","127.221060"
"F00156","천안토종장수순대","음식점","ST001","충청남도 아산시 둔포면 관용로 14","36.895549","127.036462"
"F00157","스모프치킨","음식점","ST001","충청남도 천안시 서북구 입장면 하장4길 12","36.914615","127.221050"
"F00158","르안타이","음식점","ST001","충청남도 천안시 서북구 입장면 하장4길 12","36.914606","127.221038"
"F00159","버거입장","음식점","ST001","충청남도 천안시 서북구 입장면 하장4길 11-1","36.914128","127.220902"
"F00160","부촌닭갈비","음식점","ST001","충청남도 아산시 둔포면 윤보선로 652-21","36.922061","127.033445"
"F00161","아티블랑둔포농협하나로마트점","카페","ST001","충청남도 아산시 둔포면 충무로 1759","36.927701","127.034525"
"F00162","아리랑장수촌","음식점","ST001","충청남도 천안시 서북구 입장면 성진로 810","36.914580","127.220533"
"F00163","토종장수순대","음식점","ST001","충청남도 아산시 둔포면 충무로 1778","36.930134","127.035368"
"F00164","옛날그맛치킨.족발","음식점","ST001","충청남도 아산시 둔포면 충무로 1768","36.929323","127.035210"
"F00165","관대기사식당","음식점","ST001","충청남도 아산시 둔포면 관대길 88","36.906949","127.034336"
"F00166","노걸대감자탕","음식점","ST001","충청남도 아산시 둔포면 충무로 1764","36.929188","127.035255"
"F00167","대전식당","음식점","ST001","충청남도 아산시 둔포면 충무로 1760","36.928782","127.035266"
"F00168","해남보리밥","음식점","ST001","충청남도 아산시 둔포면 충무로 1762","36.929134","127.035367"
"F00169","이마트24 아산둔포 충무로점","편의점","ST001","충청남도 아산시 둔포면 충무로 1752","36.928079","127.035288"
"F00170","이마트24아산둔포충무로점","편의점","ST001","충청남도 아산시 둔포면 충무로 1752","36.928079","127.035288"
"F00171","일품양평해장국","음식점","ST001","충청남도 아산시 둔포면 둔포면로17번길 20-5","36.929629","127.035659"
"F00172","제일떡방아간","음식점","ST001","충청남도 아산시 둔포면 둔포면로25번길 20-5","36.930152","127.036052"
"F00173","둔포막창순대","음식점","ST001","충청남도 아산시 둔포면 충무로 1750-1","36.927584","127.035580"
"F00174","오리마을","음식점","ST001","충청남도 아산시 둔포면 둔포로 4","36.926629","127.035400"
"F00175","궁전다방","카페","ST001","충청남도 아산시 둔포면 둔포면로17번길 16","36.929106","127.035962"
"F00176","7토츠카","음식점","ST001","충청남도 아산시 둔포면 충무로 1734","36.926421","127.035411"
"F00177","공수부대찌개","음식점","ST001","충청남도 아산시 둔포면 충무로 1734","36.926421","127.035411"
"F00178","메가박스","음식점","ST001","충청남도 아산시 둔포면 충무로 1790","36.930377","127.036378"
"F00179","밤도깨비","음식점","ST001","충청남도 아산시 둔포면 충무로 1790","36.930377","127.036378"
"F00180","상하이","음식점","ST001","충청남도 아산시 둔포면 충무로 1790","36.930377","127.036378"
"F00181","베이크앤","카페","ST001","충청남도 천안시 서북구 입장면 하장4길 26","36.914050","127.219398"
"F00182","진로해물탕","음식점","ST001","충청남도 아산시 둔포면 충무로 1748-9","36.927286","127.035849"
"F00183","반올림피자샵둔포･팽성점","음식점","ST001","충청남도 아산시 둔포면 둔포로 6-17","36.925664","127.035567"
"F00184","태성추어탕","음식점","ST001","충청남도 아산시 둔포면 충무로 1795","36.931368","127.037119"
"F00185","미가정","음식점","ST001","충청남도 아산시 둔포면 둔포로 6-11","36.925908","127.035904"
"F00186","지에스25입장휴게소점","편의점","ST001","충청남도 천안시 서북구 입장면 삼사로 2013","36.928183","127.217643"
"F00187","대구막창","음식점","ST001","충청남도 아산시 둔포면 둔포면로 5","36.927538","127.036376"
"F00188","방실이네","음식점","ST001","충청남도 아산시 둔포면 둔포면로 5","36.927538","127.036376"
"F00189","파초카페","음식점","ST001","충청남도 아산시 둔포면 둔포면로 5","36.927538","127.036376"
"F00190","콩가네","음식점","ST001","충청남도 아산시 둔포면 둔포면로17번길 10-8","36.929250","127.036894"
"F00191","흥부반점","음식점","ST001","충청남도 천안시 서북구 입장면 하장4길 32","36.913835","127.218646"
"F00192","난다방","카페","ST001","충청남도 아산시 둔포면 둔포면로 2","36.927268","127.036556"
"F00193","둔포감자탕","음식점","ST001","충청남도 아산시 둔포면 둔포면로 2-1","36.927331","127.036578"
"F00194","알파이즈","음식점","ST001","충청남도 아산시 둔포면 둔포면로 9","36.927782","127.036691"
"F00195","헤라","음식점","ST001","충청남도 아산시 둔포면 둔포면로 9","36.927782","127.036691"
"F00196","우리흑염소","음식점","ST001","충청남도 아산시 둔포면 둔포면로25번길 5","36.929232","127.037039"
"F00197","서울집","음식점","ST001","충청남도 아산시 둔포면 둔포면로 9-1","36.927881","127.036736"
"F00198","정다방","카페","ST001","충청남도 아산시 둔포면 둔포면로 9-1","36.927881","127.036736"
"F00199","가게알라","음식점","ST001","충청남도 아산시 둔포면 둔포면로5번길 4-9","36.928097","127.036792"
"F00200","샤방샤방","음식점","ST001","충청남도 아산시 둔포면 둔포면로5번길 4-9","36.928097","127.036792"
"F00201","한잔콜","음식점","ST001","충청남도 아산시 둔포면 둔포면로5번길 4-9","36.928097","127.036792"
"F00202","명성다방","카페","ST001","충청남도 아산시 둔포면 둔포면로5번길 4-9","36.928097","127.036792"
"F00203","청해진","음식점","ST001","충청남도 아산시 둔포면 둔포면로 4","36.927367","127.036646"
"F00204","썬","음식점","ST001","충청남도 아산시 둔포면 둔포면로 6-1","36.927493","127.036792"
"F00205","한잔의술","음식점","ST001","충청남도 아산시 둔포면 둔포면로 6-1","36.927493","127.036792"
"F00206","궁노래홀","음식점","ST001","충청남도 아산시 둔포면 둔포면로 8","36.927592","127.036859"
"F00207","로마노래","음식점","ST001","충청남도 아산시 둔포면 둔포면로 8","36.927592","127.036859"
"F00208","스시베이커리","음식점","ST001","충청남도 아산시 둔포면 둔포면로 13","36.928088","127.036972"
"F00209","낙원떡집","음식점","ST001","충청남도 아산시 둔포면 둔포면로17번길 2","36.928574","127.037084"
"F00210","팡팡노래나라","음식점","ST001","충청남도 아산시 둔포면 둔포면로 10-1","36.927799","127.036960"
"F00211","프린스","음식점","ST001","충청남도 아산시 둔포면 충무로 1802","36.930566","127.037680"
"F00212","밥이무리","음식점","ST001","충청남도 아산시 둔포면 둔포로 23","36.927430","127.036960"
"F00213","맛나식당","음식점","ST001","충청남도 아산시 둔포면 둔포면로 12","36.927835","127.037061"
"F00214","유명식당","음식점","ST001","충청남도 아산시 둔포면 둔포면로25번길 20-22","36.930394","127.037691"
"F00215","달빛","음식점","ST001","충청남도 아산시 둔포면 둔포면로 19-1","36.928601","127.037275"
"F00216","허니노래클럽","음식점","ST001","충청남도 아산시 둔포면 둔포면로 19-1","36.928601","127.037275"
"F00217","루비다방","카페","ST001","충청남도 아산시 둔포면 둔포면로 19-1","36.928601","127.037275"
"F00218","테크노노래홀","음식점","ST001","충청남도 아산시 둔포면 둔포면로 12-2","36.927881","127.037151"
"F00219","타로와커피","카페","ST001","충청남도 아산시 둔포면 둔포면로 12-2","36.927881","127.037151"
"F00220","수노래클럽","음식점","ST001","충청남도 아산시 둔포면 둔포면로 8-1","36.927664","127.037129"
"F00221","둔포어울림사회적협동조합","카페","ST001","충청남도 아산시 둔포면 둔포면로 33","36.929746","127.037646"
"F00222","스플래쉬베이커리","음식점","ST001","충청남도 아산시 둔포면 둔포면로 16-1","36.928277","127.037320"
"F00223","보리수칼국수","음식점","ST001","충청남도 아산시 둔포면 둔포면로 23","36.928818","127.037443"
"F00224","비상구7080라이브","음식점","ST001","충청남도 아산시 둔포면 둔포면로 25","36.929016","127.037500"
"F00225","사또치킨","음식점","ST001","충청남도 아산시 둔포면 둔포면로 25","36.929016","127.037500"
"F00226","아담다방","카페","ST001","충청남도 아산시 둔포면 둔포면로 25","36.929016","127.037500"
"F00227","핫타임","음식점","ST001","충청남도 아산시 둔포면 둔포면로25번길 20-30","36.930421","127.037893"
"F00228","둔포면로18","음식점","ST001","충청남도 아산시 둔포면 둔포면로 18","36.928322","127.037398"
"F00229","오로라카페","음식점","ST001","충청남도 아산시 둔포면 둔포면로 18-1","36.928376","127.037421"
"F00230","호식이두마리치킨","음식점","ST001","충청남도 아산시 둔포면 둔포면로 18-1","36.928376","127.037421"
"F00231","구구왕","음식점","ST001","충청남도 아산시 둔포면 둔포면로 8-3","36.927610","127.037263"
"F00232","서원정","음식점","ST001","충청남도 아산시 둔포면 둔포면로 29","36.929439","127.037679"
"F00233","맛있는김밥천국","음식점","ST001","충청남도 아산시 둔포면 둔포로 25","36.927430","127.037297"
"F00234","엔돌핀 노래나라","음식점","ST001","충청남도 아산시 둔포면 둔포로 25","36.927430","127.037297"
"F00235","엔돌핀노래나라","음식점","ST001","충청남도 아산시 둔포면 둔포로 25","36.927430","127.037297"
"F00236","호박노래클럽","음식점","ST001","충청남도 아산시 둔포면 둔포면로 22","36.928619","127.037555"
"F00237","다래다방","카페","ST001","충청남도 아산시 둔포면 둔포면로 24","36.928745","127.037623"
"F00238","싱싱포차","음식점","ST001","충청남도 아산시 둔포면 둔포면로 26","36.928998","127.037746"
"F00239","시크릿노래클럽","음식점","ST001","충청남도 아산시 둔포면 둔포면로 8-7","36.927673","127.037454"
"F00240","써니카페","음식점","ST001","충청남도 아산시 둔포면 둔포면로 26-1","36.929070","127.037780"
"F00241","전라도밥집","음식점","ST001","충청남도 아산시 둔포면 둔포면로 26-1","36.929070","127.037780"
"F00242","연지다방","카페","ST001","충청남도 아산시 둔포면 둔포면로 20-4","36.928358","127.037623"
"F00243","아리랑포차","음식점","ST001","충청남도 아산시 둔포면 둔포면로 20-3","36.928511","127.037679"
"F00244","나단란주점","음식점","ST001","충청남도 아산시 둔포면 둔포면로 28","36.929205","127.037859"
"F00245","59쌀피자","음식점","ST001","충청남도 아산시 둔포면 둔포로 26","36.927169","127.037420"
"F00246","둔포분식","음식점","ST001","충청남도 아산시 둔포면 둔포로 26","36.927169","127.037420"
"F00247","체어맨노래나라","음식점","ST001","충청남도 아산시 둔포면 둔포면로 30","36.929340","127.037904"
"F00248","향기노래홀","음식점","ST001","충청남도 아산시 둔포면 둔포면로 30","36.929340","127.037904"
"F00249","롯데리아아산","음식점","ST001","충청남도 아산시 둔포면 둔포중앙로 148","36.927511","127.037521"
"F00250","GS25둔포","편의점","ST001","충청남도 아산시 둔포면 둔포중앙로 148","36.927511","127.037521"
"F00251","아프로PC카페","PC방","ST001","충청남도 아산시 둔포면 둔포면로 39","36.930250","127.038162"
"F00252","정가네논길추어탕","음식점","ST001","충청남도 아산시 둔포면 둔포중앙로 162-5","36.926060","127.037240"
"F00253","투나잇 Tonight Hof","음식점","ST001","충청남도 아산시 둔포면 둔포면로 12-10","36.927754","127.037600"
"F00254","유연초두부","음식점","ST001","충청남도 아산시 둔포면 둔포면로 20-6","36.928313","127.037735"
"F00255","챠우보쌈호프","음식점","ST001","충청남도 아산시 둔포면 둔포면로 32","36.929439","127.038005"
"F00256","비너스","음식점","ST001","충청남도 아산시 둔포면 둔포면로 24-3","36.928935","127.037892"
"F00257","스타노래","음식점","ST001","충청남도 아산시 둔포면 둔포면로 24-3","36.928935","127.037892"
"F00258","파트너노래빠","음식점","ST001","충청남도 아산시 둔포면 둔포면로 24-3","36.928935","127.037892"
"F00259","퇴근길","음식점","ST001","충청남도 아산시 둔포면 둔포면로 12-11","36.927925","127.037701"
"F00260","학다방","카페","ST001","충청남도 아산시 둔포면 둔포면로 12-11","36.927925","127.037701"
"F00261","에이스노래나라","음식점","ST001","충청남도 아산시 둔포면 둔포중앙로 130","36.929115","127.038050"
"F00262","키스노래클럽","음식점","ST001","충청남도 아산시 둔포면 둔포중앙로 130","36.929115","127.038050"
"F00263","씨유(CU)아산둔포점","편의점","ST001","충청남도 아산시 둔포면 둔포중앙로 130","36.929115","127.038050"
"F00264","만두왕","음식점","ST001","충청남도 아산시 둔포면 충무로 1809","36.930917","127.038511"
"F00265","오거리전집","음식점","ST001","충청남도 아산시 둔포면 둔포면로 36-1","36.929809","127.038241"
"F00266","와와노래","음식점","ST001","충청남도 아산시 둔포면 둔포중앙로 134","36.928736","127.037993"
"F00267","황금돼지숯불구이","음식점","ST001","충청남도 아산시 둔포면 둔포중앙로 134","36.928736","127.037993"
"F00268","둔포부대찌개","음식점","ST001","충청남도 아산시 둔포면 둔포중앙로 128","36.929340","127.038140"
"F00269","만남","음식점","ST001","충청남도 아산시 둔포면 둔포중앙로 128","36.929340","127.038140"
"F00270","화랑노래나라","음식점","ST001","충청남도 아산시 둔포면 둔포중앙로 128","36.929340","127.038140"
"F00271","갤러리","음식점","ST001","충청남도 아산시 둔포면 둔포중앙로 138","36.928268","127.037892"
"F00272","세컨드노래홀","음식점","ST001","충청남도 아산시 둔포면 둔포중앙로 120","36.929917","127.038286"
"F00273","중국물만두집","음식점","ST001","충청남도 아산시 둔포면 둔포중앙로 120","36.929917","127.038286"
"F00274","프렌리팝","음식점","ST001","충청남도 아산시 둔포면 둔포중앙로 120","36.929917","127.038286"
"F00275","차차차노래","음식점","ST001","충청남도 아산시 둔포면 둔포중앙로 124","36.929547","127.038196"
"F00276","지에스25둔포푸른점","편의점","ST001","충청남도 아산시 둔포면 충무로 1810","36.930683","127.038488"
"F00277","아딸프랜즈","음식점","ST001","충청남도 아산시 둔포면 둔포로 28","36.927132","127.037656"
"F00278","꼬마김밥전문","음식점","ST001","충청남도 아산시 둔포면 둔포중앙로 140","36.928178","127.037881"
"F00279","델리명과","음식점","ST001","충청남도 아산시 둔포면 둔포중앙로 140","36.928178","127.037881"
"F00280","장호덕손만두","음식점","ST001","충청남도 아산시 둔포면 둔포중앙로 144","36.927907","127.037825"
"F00281","만타스시31아산","음식점","ST001","충청남도 아산시 둔포면 둔포중앙로 132-1","36.928898","127.038049"
"F00282","가장맛있는족발아산","음식점","ST001","충청남도 아산시 둔포면 둔포중앙로 168","36.925736","127.037554"
"F00283","얼라이언스","음식점","ST001","충청남도 아산시 둔포면 둔포중앙로 162-1","36.926105","127.037644"
"F00284","파리바게뜨아산둔포","음식점","ST001","충청남도 아산시 둔포면 둔포중앙로 162-1","36.926105","127.037644"
"F00285","금수정","음식점","ST001","충청남도 아산시 둔포면 둔포중앙로 168","36.925727","127.037577"
"F00286","브스트래차","음식점","ST001","충청남도 아산시 둔포면 둔포중앙로 174-1","36.925258","127.037644"
"F00287","아산실업허그비","카페","ST001","충청남도 아산시 둔포면 둔포중앙로 174-1","36.925258","127.037644"
"F00288","사랑방다방","카페","ST001","충청남도 아산시 둔포면 둔포중앙로 119","36.929980","127.038645"
"F00289","경동주물럭식당","음식점","ST001","충청남도 아산시 둔포면 둔포중앙로 127","36.929349","127.038487"
"F00290","79네수육국밥","음식점","ST001","충청남도 아산시 둔포면 둔포중앙로 172","36.925465","127.037689"
"F00291","명품노래홀","음식점","ST001","충청남도 아산시 둔포면 둔포중앙로 121","36.929808","127.038611"
"F00292","오케이노래클럽","음식점","ST001","충청남도 아산시 둔포면 둔포중앙로 129","36.929214","127.038465"
"F00293","반자이(BANZAI)","음식점","ST001","충청남도 아산시 둔포면 둔포중앙로 115","36.930241","127.038724"
"F00294","스타플레이스","음식점","ST001","충청남도 아산시 둔포면 둔포중앙로 115","36.930241","127.038724"
"F00295","메가엠지씨커피아산둔포초점","카페","ST001","충청남도 아산시 둔포면 둔포중앙로 145","36.927673","127.038127"
"F00296","신용식당","음식점","ST001","충청남도 아산시 둔포면 둔포중앙로 147","36.927565","127.038116"
"F00297","장가네맛고을","음식점","ST001","충청남도 천안시 서북구 입장면 연곡길 58","36.920092","127.216924"
"F00298","둔포갈비","음식점","ST001","충청남도 아산시 둔포면 둔포중앙로 141","36.927979","127.038274"
"F00299","달소주","음식점","ST001","충청남도 아산시 둔포면 둔포중앙로 131","36.929061","127.038543"
"F00300","왕십리","음식점","ST001","충청남도 아산시 둔포면 둔포중앙로 131","36.929061","127.038543"
"F00301","래미안노래홀","음식점","ST001","충청남도 아산시 둔포면 둔포중앙로 125-1","36.929385","127.038622"
"F00302","체리노래홀","음식점","ST001","충청남도 아산시 둔포면 둔포중앙로133번길 1","36.928907","127.038510"
"F00303","스카즈카","음식점","ST001","충청남도 아산시 둔포면 둔포중앙로133번길 2","36.928682","127.038465"
"F00304","프로포즈","음식점","ST001","충청남도 아산시 둔포면 둔포중앙로133번길 2","36.928682","127.038465"
"F00305","피자스쿨아산","음식점","ST001","충청남도 아산시 둔포면 둔포중앙로109번길 4","36.930565","127.038937"
"F00306","엠비씨케이비에스(KBS)에스비에스(SBS)방영될술집","음식점","ST001","충청남도 아산시 둔포면 둔포중앙로 125","36.929547","127.038701"
"F00307","탄디르호나베이커리","음식점","ST001","충청남도 아산시 둔포면 둔포중앙로 125","36.929547","127.038701"
"F00308","김밥천하","음식점","ST001","충청남도 아산시 둔포면 둔포로 30","36.927294","127.038195"
"F00309","현대생고기","음식점","ST001","충청남도 아산시 둔포면 둔포중앙로 180","36.924663","127.037722"
"F00310","아트시티","음식점","ST001","충청남도 아산시 둔포면 둔포중앙로 157","36.926628","127.038093"
"F00311","금탕마라탕","음식점","ST001","충청남도 아산시 둔포면 둔포중앙로 151","36.927051","127.038206"
"F00312","김밥스시합","음식점","ST001","충청남도 아산시 둔포면 둔포중앙로137번길 3","36.928232","127.038476"
"F00313","훌랄라치킨","음식점","ST001","충청남도 아산시 둔포면 둔포중앙로133번길 4","36.928646","127.038577"
"F00314","고기나라","음식점","ST001","충청남도 아산시 둔포면 둔포중앙로 127-1","36.929250","127.038723"
"F00315","거래처7080","음식점","ST001","충청남도 아산시 둔포면 둔포중앙로 119-2","36.929754","127.038903"
"F00316","천사부","음식점","ST001","충청남도 아산시 둔포면 둔포로 31","36.927610","127.038419"
"F00317","임가네칼국수","음식점","ST001","충청남도 아산시 둔포면 둔포중앙로 165","36.925925","127.038093"
"F00318","파파두이트","음식점","ST001","충청남도 아산시 둔포면 둔포중앙로137번길 7-9","36.928709","127.038745"
"F00319","박군치킨","음식점","ST001","충청남도 아산시 둔포면 둔포로 34","36.927393","127.038576"
"F00320","조서방꼬막짬뽕","음식점","ST001","충청남도 아산시 둔포면 둔포중앙로 179","36.924546","127.038204"
"F00321","아이리스커피","카페","ST001","충청남도 아산시 둔포면 둔포중앙로 179","36.924546","127.038204"
"F00322","숙이네집밥","음식점","ST001","충청남도 아산시 둔포면 둔포중앙로171번길 6","36.925069","127.038328"
"F00323","둔포치맥앤닭발","음식점","ST001","충청남도 아산시 둔포면 둔포중앙로 186","36.923996","127.038238"
"F00324","봉재정육식당","음식점","ST001","충청남도 아산시 둔포면 둔포중앙로 186","36.923996","127.038238"
"F00325","자연각","음식점","ST001","충청남도 아산시 둔포면 둔포중앙로 186","36.923996","127.038238"
"F00326","그러카키젠","음식점","ST001","충청남도 아산시 둔포면 둔포로 37","36.927628","127.038902"
"F00327","미니스톱둔포","편의점","ST001","충청남도 아산시 둔포면 둔포중앙로109번길 11","36.930394","127.039711"
"F00328","이화수전통육개장아산","음식점","ST001","충청남도 아산시 둔포면 둔포중앙로 189","36.924519","127.038474"
"F00329","이디야커피아산","카페","ST001","충청남도 아산시 둔포면 둔포중앙로 189","36.924519","127.038474"
"F00330","고기닭","음식점","ST001","충청남도 아산시 둔포면 둔포로 37-4","36.927718","127.039250"
"F00331","오태식해바라기치킨","음식점","ST001","충청남도 아산시 둔포면 둔포로 37-4","36.927718","127.039250"
"F00332","장터포차","음식점","ST001","충청남도 아산시 둔포면 둔포로 37-4","36.927718","127.039250"
"F00333","자성화맛집코다리네","음식점","ST001","충청남도 아산시 둔포면 둔포중앙로 188","36.924041","127.038653"
"F00334","오늘통닭","음식점","ST001","충청남도 아산시 둔포면 둔포로 40","36.927393","127.039384"
"F00335","정가네","음식점","ST001","충청남도 아산시 둔포면 둔포로 40","36.927393","127.039384"
"F00336","스마크(SMAK)","음식점","ST001","충청남도 아산시 둔포면 둔포중앙로109번길 15","36.930096","127.040048"
"F00337","케밥치비비큐","음식점","ST001","충청남도 아산시 둔포면 둔포로 41","36.927654","127.039497"
"F00338","미니스톱둔포","편의점","ST001","충청남도 아산시 둔포면 둔포로 41","36.927654","127.039497"
"F00339","제이피스바베큐핏","음식점","ST001","충청남도 아산시 둔포면 둔포중앙로171번길 12","36.924798","127.039046"
"F00340","착한감자탕&해장국","음식점","ST001","충청남도 아산시 둔포면 둔포중앙로 193","36.924510","127.039013"
"F00341","모범약국","약국","ST001","충청남도 아산시 둔포면 둔포면로 1-1","36.920596","127.038570"
"F00342","케밥집","음식점","ST001","충청남도 아산시 둔포면 둔포로 42","36.927420","127.039643"
"F00343","항아리칼국수","음식점","ST001","충청남도 아산시 둔포면 둔포로 42","36.927420","127.039643"
"F00344","동원홈푸드동성제약주","음식점","ST001","충청남도 아산시 둔포면 관대안길 45","36.905704","127.039373"
"F00345","엠케이푸드","음식점","ST001","충청남도 아산시 둔포면 둔포중앙로 197","36.924510","127.039439"
"F00346","피자유니버스둔포팽성점","음식점","ST001","충청남도 아산시 둔포면 둔포중앙로 197","36.924510","127.039439"
"F00347","이마트24아산둔포소망점","편의점","ST001","충청남도 아산시 둔포면 둔포중앙로133번길 23-9","36.929889","127.040710"
"F00348","딜리셔스브라더","음식점","ST001","충청남도 아산시 둔포면 둔포중앙로171번길 20","36.924537","127.039607"
"F00349","조인둔포지점","음식점","ST001","충청남도 아산시 둔포면 충무로 1837-2","36.932042","127.041441"
"F00350","킹콩부대찌개아산","음식점","ST001","충청남도 아산시 둔포면 둔포중앙로 200","36.924131","127.039663"
"F00351","옥수사","음식점","ST001","충청남도 천안시 서북구 입장면 성진로 754","36.912815","127.214828"
"F00352","캔디주점","음식점","ST001","충청남도 천안시 서북구 입장면 성진로 754","36.912815","127.214828"
"F00353","바라캇BARAKAT","음식점","ST001","충청남도 아산시 둔포면 둔포중앙로161번길 21-2","36.926294","127.040270"
"F00354","금룡","음식점","ST001","충청남도 아산시 둔포면 둔포로 50","36.927321","127.040484"
"F00355","피시카","음식점","ST001","충청남도 아산시 둔포면 둔포중앙로133번길 23-6","36.929285","127.041058"
"F00356","GS25아산둔포고","편의점","ST001","충청남도 아산시 둔포면 충무로 1838","36.931186","127.041676"
"F00357","브루1990커피","카페","ST001","충청남도 천안시 서북구 입장면 연곡길 85","36.921124","127.214256"
"F00358","산골마을","음식점","ST001","충청남도 아산시 둔포면 둔포중앙로133번길 68","36.931285","127.042047"
"F00359","계백삼계탕","음식점","ST001","충청남도 아산시 둔포면 둔포중앙로161번길 26-6","36.925735","127.040932"
"F00360","춘추관","음식점","ST001","충청남도 천안시 서북구 입장면 신덕3길 5","36.912700","127.213761"
"F00361","응삼이초벌구이","음식점","ST001","충청남도 아산시 둔포면 충무로 1844","36.931231","127.042383"
"F00362","둔포칼국수","음식점","ST001","충청남도 아산시 둔포면 충무로 1846","36.931312","127.042619"
"F00363","둔포약국","약국","ST001","충청남도 아산시 둔포면 둔포로 34","36.920524","127.040684"
"F00364","글러부스(GLOBUS)","음식점","ST001","충청남도 아산시 둔포면 둔포중앙로133번길 52","36.929996","127.042416"
"F00365","라이스츄","음식점","ST001","충청남도 아산시 둔포면 둔포중앙로133번길 52","36.929996","127.042416"
"F00366","둔포 우리약국","약국","ST001","충청남도 아산시 둔포면 둔포중앙로 137","36.921755","127.040941"
"F00367","명문각","음식점","ST001","충청남도 천안시 서북구 입장면 성진로 737","36.913116","127.213022"
"F00368","카페신양리카페;신양리","카페","ST001","충청남도 아산시 둔포면 봉신로230번길 9","36.882441","127.052564"
"F00369","이마트24아산둔포신양점","편의점","ST001","충청남도 아산시 둔포면 봉신로229번길 6","36.883451","127.051993"
"F00370","유명식당","음식점","ST001","충청남도 아산시 둔포면 둔포로 71","36.927419","127.042920"
"F00371","대가생고기","음식점","ST001","충청남도 아산시 둔포면 충무로 1863","36.932645","127.044360"
"F00372","일송정","음식점","ST001","충청남도 아산시 둔포면 둔포중앙로171번길 87","36.918643","127.041782"
"F00373","그린루프","카페","ST001","충청남도 아산시 둔포면 충무로 1860-1","36.931753","127.044224"
"F00374","대박김치된장찌개","음식점","ST001","충청남도 천안시 서북구 입장면 성진로 729","36.913108","127.212135"
"F00375","즐거운소반","음식점","ST001","충청남도 천안시 서북구 입장면 성진로 729","36.913108","127.212135"
"F00376","집밥푸드","음식점","ST001","충청남도 천안시 서북구 입장면 성진로 729","36.913108","127.212135"
"F00377","세븐일레븐천안입장점","편의점","ST001","충청남도 천안시 서북구 입장면 성진로 729","36.913108","127.212135"
"F00378","천혜푸드","음식점","ST001","충청남도 아산시 둔포면 관대안길 62-38","36.902963","127.044084"
"F00379","카페든해","카페","ST001","충청남도 아산시 둔포면 둔포중앙로 233","36.923860","127.043299"
"F00380","동백","음식점","ST001","충청남도 천안시 서북구 입장면 성진로 722","36.912704","127.211225"
"F00381","감성놀이터","음식점","ST001","충청남도 아산시 둔포면 충무로 1873","36.932635","127.045482"
"F00382","천안아산애월제주갈치","음식점","ST001","충청남도 아산시 둔포면 충무로 1873","36.932635","127.045482"
"F00383","지에스25둔포백남점","편의점","ST001","충청남도 아산시 둔포면 둔포중앙로171번길 97","36.918814","127.042949"
"F00384","세븐일레븐아산둔포로점","편의점","ST001","충청남도 아산시 둔포면 둔포로 92-12","36.924580","127.044119"
"F00385","왕십리연탄곱창","음식점","ST001","충청남도 천안시 서북구 입장면 성진로 716","36.912679","127.210507"
"F00386","입장경양식당","음식점","ST001","충청남도 천안시 서북구 입장면 성진로 716","36.912679","127.210507"
"F00387","채영","음식점","ST001","충청남도 천안시 서북구 입장면 성진로 716","36.912679","127.210507"
"F00388","봉수아피자","음식점","ST001","충청남도 아산시 둔포면 둔포로 94-2","36.925373","127.044411"
"F00389","송담게장곤드레둔포","음식점","ST001","충청남도 아산시 둔포면 둔포중앙로161번길 26-39","36.924048","127.044298"
"F00390","세븐일레븐천안연곡길점","편의점","ST001","충청남도 천안시 서북구 입장면 연곡길 160","36.926215","127.209220"
"F00391","용이네생선구이활어회","음식점","ST001","충청남도 천안시 서북구 입장면 성진로 712","36.912670","127.210103"
"F00392","입장본가","음식점","ST001","충청남도 천안시 서북구 입장면 연곡길 164","36.926603","127.208963"
"F00393","한끼애푸드시스템","음식점","ST001","충청남도 천안시 서북구 입장면 연곡길 164","36.926603","127.208963"
"F00394","커피타임","카페","ST001","충청남도 천안시 서북구 입장면 연곡길 166","36.926784","127.208750"
"F00395","낙곱새녀석들둔포","음식점","ST001","충청남도 아산시 둔포면 둔포로 130-34","36.923615","127.046262"
"F00396","찌개공방둔포","음식점","ST001","충청남도 아산시 둔포면 둔포로 130-34","36.923615","127.046262"
"F00397","오대륙통닭 아산둔포점","음식점","ST001","충청남도 아산시 둔포면 봉신로 279","36.886522","127.054979"
"F00398","세븐일레븐아산둔포신양점","편의점","ST001","충청남도 아산시 둔포면 봉신로 279","36.886522","127.055012"
"F00399","피자어때","음식점","ST001","충청남도 아산시 둔포면 둔포로 130-40","36.922858","127.046632"
"F00400","요아요아","음식점","ST001","충청남도 아산시 둔포면 둔포로 130-30","36.923471","127.046756"
"F00401","제이피스바베큐","음식점","ST001","충청남도 아산시 둔포면 둔포로 130-30","36.923471","127.046756"
"F00402","통큰왕뼈해장국","음식점","ST001","충청남도 아산시 둔포면 둔포로 130-30","36.923471","127.046756"
"F00403","닥엔돈스쪽갈비치킨아산","음식점","ST001","충청남도 아산시 둔포면 둔포로 130-28","36.923254","127.046969"
"F00404","별빛푸드","음식점","ST001","충청남도 아산시 둔포면 둔포로 130-28","36.923254","127.046969"
"F00405","한그릇뚝딱","음식점","ST001","충청남도 아산시 둔포면 둔포로 130-47","36.923182","127.047059"
"F00406","대기만성둔포","음식점","ST001","충청남도 아산시 둔포면 둔포로 130-46","36.924092","127.047250"
"F00407","고깃집얼큰된장찌개","음식점","ST001","충청남도 아산시 둔포면 둔포로 130-27","36.923317","127.047149"
"F00408","미스터커리난","음식점","ST001","충청남도 아산시 둔포면 둔포로 130-27","36.923317","127.047149"
"F00409","탕참(탕수육참잘하는집)","음식점","ST001","충청남도 아산시 둔포면 둔포로 130-15","36.924173","127.047363"
"F00410","탕참탕수육참잘하는집","음식점","ST001","충청남도 아산시 둔포면 둔포로 130-15","36.924173","127.047363"
"F00411","GS25 아산둔포타운점","편의점","ST001","충청남도 아산시 둔포면 둔포로 130-14","36.924272","127.047497"
"F00412","카페휴","카페","ST001","충청남도 아산시 둔포면 둔포로 130-24","36.923705","127.047508"
"F00413","삼부자교동짬뽕","음식점","ST001","충청남도 아산시 둔포면 둔포로 130-23","36.923885","127.047609"
"F00414","유노피자","음식점","ST001","충청남도 아산시 둔포면 둔포로 130-23","36.923885","127.047609"
"F00415","피자유니온","음식점","ST001","충청남도 아산시 둔포면 둔포로 130-23","36.923885","127.047609"
"F00416","방아다리수제숯불갈비","음식점","ST001","충청남도 아산시 둔포면 아산밸리북로 35-5","36.928182","127.050990"
"F00417","지에스25입장","편의점","ST001","충청남도 천안시 서북구 입장면 연곡길 222","36.928434","127.202952"
"F00418","황금장어","음식점","ST001","충청남도 아산시 둔포면 아산밸리북로 27","36.927596","127.050967"
"F00419","입장삼사로점","음식점","ST001","충청남도 천안시 서북구 입장면 삼사로 1878","36.923404","127.203735"
"F00420","빠통","음식점","ST001","충청남도 아산시 둔포면 아산밸리북로 29","36.927596","127.051170"
"F00421","올릭","음식점","ST001","충청남도 아산시 둔포면 아산밸리북로 29","36.927596","127.051170"
"F00422","일월성","음식점","ST001","충청남도 아산시 둔포면 아산밸리중앙로 21","36.923704","127.050370"
"F00423","GS25입장","편의점","ST001","충청남도 천안시 서북구 입장면 신덕1길 2","36.912320","127.203998"
"F00424","세븐일레븐천안입장세화점","편의점","ST001","충청남도 천안시 서북구 입장면 신덕1길 2","36.912320","127.203998"
"F00425","세광양대창","음식점","ST001","충청남도 아산시 둔포면 아산밸리북로 33","36.927830","127.051439"
"F00426","춘옥","음식점","ST001","충청남도 아산시 둔포면 아산밸리북로 33","36.927830","127.051439"
"F00427","알리바바버거아산","음식점","ST001","충청남도 아산시 둔포면 아산밸리중앙로 25","36.923739","127.050740"
"F00428","테크노분식","음식점","ST001","충청남도 아산시 둔포면 아산밸리중앙로 25","36.923739","127.050740"
"F00429","포비엣","음식점","ST001","충청남도 아산시 둔포면 아산밸리중앙로 25","36.923739","127.050740"
"F00430","세븐일레븐천안연곡점","편의점","ST001","충청남도 천안시 서북구 입장면 연곡길 622","36.955143","127.185631"
"F00431","이맛이지","음식점","ST001","충청남도 아산시 둔포면 아산밸리남로 37","36.921135","127.050570"
"F00432","커피원","카페","ST001","충청남도 천안시 서북구 성거읍 성진로 654","36.912330","127.203605"
"F00433","본우리집밥티케이엘리베이터","음식점","ST001","충청남도 천안시 서북구 입장면 연곡길 235","36.928905","127.201516"
"F00434","박군치킨입장점","음식점","ST001","충청남도 천안시 서북구 성거읍 성진로 646-1","36.912385","127.203100"
"F00435","천안옛날호두과자북천안IC입장점","음식점","ST001","충청남도 천안시 서북구 입장면 삼사로 1860","36.923371","127.202209"
"F00436","돈통한방누룽지통닭","음식점","ST001","충청남도 아산시 둔포면 아산밸리북로 48","36.926748","127.052538"
"F00437","비에이치씨아산","음식점","ST001","충청남도 아산시 둔포면 아산밸리북로 48","36.926748","127.052538"
"F00438","산더미국밥","음식점","ST001","충청남도 아산시 둔포면 아산밸리북로 48","36.926748","127.052538"
"F00439","지엔빙","음식점","ST001","충청남도 아산시 둔포면 아산밸리북로 48","36.926748","127.052538"
"F00440","설몽","카페","ST001","충청남도 아산시 둔포면 아산밸리북로 48","36.926748","127.052538"
"F00441","권가면옥","음식점","ST001","충청남도 천안시 서북구 성거읍 모전2길 141","36.909386","127.201992"
"F00442","더스푼","음식점","ST001","충청남도 아산시 둔포면 아산밸리중앙로 50","36.923216","127.052502"
"F00443","옥이치킨","음식점","ST001","충청남도 아산시 둔포면 아산밸리중앙로 50","36.923216","127.052502"
"F00444","이자카야자유","음식점","ST001","충청남도 아산시 둔포면 아산밸리중앙로 50","36.923216","127.052502"
"F00445","공차아산","카페","ST001","충청남도 아산시 둔포면 아산밸리중앙로 50","36.923216","127.052502"
"F00446","달콤","카페","ST001","충청남도 아산시 둔포면 아산밸리중앙로 50","36.923216","127.052502"
"F00447","무진푸드","음식점","ST001","충청남도 천안시 서북구 입장면 연곡길 407","36.943065","127.193594"
"F00448","입장휴게소나이트카페","음식점","ST001","충청남도 천안시 서북구 입장면 연곡길 407","36.943065","127.193594"
"F00449","좋은아침","음식점","ST001","충청남도 천안시 서북구 입장면 연곡길 407","36.943065","127.193594"
"F00450","케이알산업입장휴게소던킨도너츠상","음식점","ST001","충청남도 천안시 서북구 입장면 연곡길 407","36.943065","127.193594"
"F00451","제이푸드","카페","ST001","충청남도 천안시 서북구 입장면 연곡길 407","36.943065","127.193594"
"F00452","모이라 MOIRA","음식점","ST001","충청남도 아산시 둔포면 아산밸리중앙로 50","36.923216","127.052671"
"F00453","파스타입니다","음식점","ST001","충청남도 아산시 둔포면 아산밸리중앙로 50","36.923216","127.052671"
"F00454","모이라MOIRA","카페","ST001","충청남도 아산시 둔포면 아산밸리중앙로 50","36.923216","127.052671"
"F00455","59쌀피자아산","음식점","ST001","충청남도 아산시 둔포면 아산밸리중앙로 47","36.923928","127.052974"
"F00456","김가네국수&튀김","음식점","ST001","충청남도 아산시 둔포면 아산밸리중앙로 47","36.923928","127.052974"
"F00457","대만락카스테라","음식점","ST001","충청남도 아산시 둔포면 아산밸리중앙로 47","36.923928","127.052974"
"F00458","메고지고떡창고아산","음식점","ST001","충청남도 아산시 둔포면 아산밸리중앙로 47","36.923928","127.052974"
"F00459","처갓집양념치킨","음식점","ST001","충청남도 아산시 둔포면 아산밸리중앙로 47","36.923928","127.052974"
"F00460","GS25둔포이지더원","편의점","ST001","충청남도 아산시 둔포면 아산밸리중앙로 47","36.923928","127.052974"
"F00461","용천가든","음식점","ST001","충청남도 천안시 서북구 입장면 성진로 637","36.912667","127.201608"
"F00462","명문푸드","음식점","ST001","충청남도 천안시 서북구 성거읍 모전2길 149","36.910919","127.201424"
"F00463","세븐일레븐아산둔포운용점","편의점","ST001","충청남도 아산시 둔포면 운용길 54-42","36.932802","127.056078"
"F00464","이디야커피아산","카페","ST001","충청남도 아산시 둔포면 아산밸리남로 77","36.920855","127.053511"
"F00465","엉아네요리연구소","음식점","ST001","충청남도 아산시 둔포면 운용길70번길 30-16","36.932820","127.056493"
"F00466","토리네","음식점","ST001","충청남도 아산시 둔포면 운용길70번길 30-16","36.932820","127.056493"
"F00467","봉숙이양갈비화덕구이","음식점","ST001","충청남도 아산시 둔포면 아산밸리남로 77","36.920855","127.053623"
"F00468","청년피자둔포","음식점","ST001","충청남도 아산시 둔포면 아산밸리남로 77","36.920855","127.053623"
"F00469","하몬스치킨","음식점","ST001","충청남도 아산시 둔포면 아산밸리남로 77","36.920855","127.053623"
"F00470","365부산밀면","음식점","ST001","충청남도 아산시 둔포면 운용길70번길 30-12","36.932640","127.056673"
"F00471","밥풀릭스","음식점","ST001","충청남도 아산시 둔포면 운용길70번길 30-12","36.932640","127.056673"
"F00472","춘장집 아산테크노밸리점","음식점","ST001","충청남도 아산시 둔포면 운용길70번길 30-12","36.932640","127.056673"
"F00473","도복희상회아산","음식점","ST001","충청남도 아산시 둔포면 운용길70번길 30-8","36.932387","127.056628"
"F00474","영수산회;초밥","음식점","ST001","충청남도 아산시 둔포면 운용길60번길 23","36.932621","127.056841"
"F00475","빌라","카페","ST001","충청남도 아산시 둔포면 운용길 31","36.934730","127.057741"
"F00476","동보식당동보테크점","음식점","ST001","충청남도 아산시 음봉면 관용로 278","36.888519","127.062451"
"F00477","GS25아산","편의점","ST001","충청남도 아산시 둔포면 운용길 56-15","36.932865","127.057391"
"F00478","김밥나라엔마트점","음식점","ST001","충청남도 아산시 둔포면 석곡길 16","36.918971","127.054373"
"F00479","몽브레드","음식점","ST001","충청남도 아산시 둔포면 석곡길 16","36.918971","127.054373"
"F00480","이모네밥집","음식점","ST001","충청남도 천안시 서북구 입장면 연곡길 353","36.937180","127.194511"
"F00481","세븐일레븐아산한화기숙사점","편의점","ST001","충청남도 아산시 둔포면 석곡길 42","36.917070","127.054484"
"F00482","고기듬뿍대왕비빔밥","음식점","ST001","충청남도 아산시 둔포면 아산밸리남로 81","36.920278","127.054722"
"F00483","언노운피자아산","음식점","ST001","충청남도 아산시 둔포면 아산밸리남로 81","36.920278","127.054722"
"F00484","우리집닭강정.치킨아산","음식점","ST001","충청남도 아산시 둔포면 아산밸리남로 81","36.920278","127.054722"
"F00485","밀알한식뷔페","음식점","ST001","충청남도 아산시 둔포면 운용길 56-12","36.933099","127.057886"
"F00486","선영이네김밥&집밥","음식점","ST001","충청남도 아산시 둔포면 아산밸리북로 68","36.926882","127.056085"
"F00487","연경","음식점","ST001","충청남도 아산시 둔포면 운용길 56-4","36.932936","127.058121"
"F00488","꼬마김밥어른떡볶이","음식점","ST001","충청남도 아산시 둔포면 아산밸리중앙로 58-5","36.923233","127.055600"
"F00489","대추빵","음식점","ST001","충청남도 아산시 둔포면 아산밸리중앙로 58-5","36.923233","127.055600"
"F00490","땅스부대찌개아산","음식점","ST001","충청남도 아산시 둔포면 아산밸리중앙로 58-5","36.923233","127.055600"
"F00491","뚜레쥬르아산","음식점","ST001","충청남도 아산시 둔포면 아산밸리중앙로 58-5","36.923233","127.055600"
"F00492","소문난유가네","음식점","ST001","충청남도 아산시 둔포면 아산밸리중앙로 58-5","36.923233","127.055600"
"F00493","송가육회","음식점","ST001","충청남도 아산시 둔포면 아산밸리중앙로 58-5","36.923233","127.055600"
"F00494","오리상회","음식점","ST001","충청남도 아산시 둔포면 아산밸리중앙로 58-5","36.923233","127.055600"
"F00495","이삭토스트아산","음식점","ST001","충청남도 아산시 둔포면 아산밸리중앙로 58-5","36.923233","127.055600"
"F00496","정담손만두.국수아산밸리점","음식점","ST001","충청남도 아산시 둔포면 아산밸리중앙로 58-5","36.923233","127.055600"
"F00497","조선닭도리탕","음식점","ST001","충청남도 아산시 둔포면 아산밸리중앙로 58-5","36.923233","127.055600"
"F00498","파리바게뜨아산","음식점","ST001","충청남도 아산시 둔포면 아산밸리중앙로 58-5","36.923233","127.055600"
"F00499","팔천순대","음식점","ST001","충청남도 아산시 둔포면 아산밸리중앙로 58-5","36.923233","127.055600"
"F00500","피자스쿨","음식점","ST001","충청남도 아산시 둔포면 아산밸리중앙로 58-5","36.923233","127.055600"
"F00501","석곡311카페(cafe)","카페","ST001","충청남도 아산시 둔포면 석곡길 132-16","36.910789","127.055546"
"F00502","굽네치킨둔포","음식점","ST001","충청남도 아산시 둔포면 아산밸리중앙로 67","36.923863","127.056083"
"F00503","노랑통닭아산","음식점","ST001","충청남도 아산시 둔포면 아산밸리중앙로 67","36.923863","127.056083"
"F00504","다시돌아온족가네","음식점","ST001","충청남도 아산시 둔포면 아산밸리중앙로 67","36.923863","127.056083"
"F00505","닭발흥신소","음식점","ST001","충청남도 아산시 둔포면 아산밸리중앙로 67","36.923863","127.056083"
"F00506","도토리분식","음식점","ST001","충청남도 아산시 둔포면 아산밸리중앙로 67","36.923863","127.056083"
"F00507","명랑시대쌀핫도그둔포","음식점","ST001","충청남도 아산시 둔포면 아산밸리중앙로 67","36.923863","127.056083"
"F00508","명인","음식점","ST001","충청남도 아산시 둔포면 아산밸리중앙로 67","36.923863","127.056083"
"F00509","배스킨라빈스아산둔포","음식점","ST001","충청남도 아산시 둔포면 아산밸리중앙로 67","36.923863","127.056083"
"F00510","씨부떡아산","음식점","ST001","충청남도 아산시 둔포면 아산밸리중앙로 67","36.923863","127.056083"
"F00511","아랫집돼지","음식점","ST001","충청남도 아산시 둔포면 아산밸리중앙로 67","36.923863","127.056083"
"F00512","해루집","음식점","ST001","충청남도 아산시 둔포면 아산밸리중앙로 67","36.923863","127.056083"
"F00513","커피에반하다 아산테크노밸리점","카페","ST001","충청남도 아산시 둔포면 아산밸리중앙로 67","36.923863","127.056083"
"F00514","세븐일레븐아산둔포이지점","편의점","ST001","충청남도 아산시 둔포면 아산밸리중앙로 67","36.923863","127.056083"
"F00515","빅쭌부대찌개","음식점","ST001","충청남도 천안시 서북구 입장면 성진로 605","36.912339","127.198420"
"F00516","동원홈푸드해태제과식품아산공장","음식점","ST001","충청남도 아산시 음봉면 아산밸리로388번길 149-17","36.902894","127.057369"
"F00517","달빛고양이","음식점","ST001","충청남도 아산시 둔포면 아산밸리서로 96","36.930837","127.058221"
"F00518","돌담집","음식점","ST001","충청남도 아산시 둔포면 아산밸리중앙로 79-16","36.925268","127.057015"
"F00519","일등양평해장국아산","음식점","ST001","충청남도 아산시 둔포면 아산밸리중앙로 79-14","36.924971","127.057015"
"F00520","코다리와만남","음식점","ST001","충청남도 아산시 둔포면 아산밸리중앙로 79-14","36.924971","127.057015"
"F00521","푸드앤코","음식점","ST001","충청남도 천안시 서북구 입장면 연곡길 401","36.940790","127.190546"
"F00522","궁전해물칼국수아산","음식점","ST001","충청남도 아산시 둔포면 아산밸리중앙로 79-12","36.924719","127.057026"
"F00523","주당","음식점","ST001","충청남도 아산시 둔포면 아산밸리중앙로 79-8","36.924512","127.057004"
"F00524","가마치통닭아산","음식점","ST001","충청남도 아산시 둔포면 아산밸리중앙로 79-6","36.924277","127.057015"
"F00525","거제회수산","음식점","ST001","충청남도 아산시 둔포면 아산밸리중앙로 79-6","36.924277","127.057015"
"F00526","신전떡볶이둔포","음식점","ST001","충청남도 아산시 둔포면 아산밸리중앙로 79-6","36.924277","127.057015"
"F00527","야간상회","음식점","ST001","충청남도 아산시 둔포면 아산밸리중앙로 79-6","36.924277","127.057015"
"F00528","제이제이곱창","음식점","ST001","충청남도 아산시 둔포면 아산밸리중앙로 79-6","36.924277","127.057015"
"F00529","족발야시장아산","음식점","ST001","충청남도 아산시 둔포면 아산밸리중앙로 79-6","36.924277","127.057015"
"F00530","한잔어때","음식점","ST001","충청남도 아산시 둔포면 아산밸리중앙로 79-6","36.924277","127.057015"
"F00531","고봉민김밥人아산","음식점","ST001","충청남도 아산시 둔포면 아산밸리중앙로 83","36.923728","127.057059"
"F00532","홍춘천치즈닭갈비아산","음식점","ST001","충청남도 아산시 둔포면 아산밸리중앙로 83","36.923728","127.057059"
"F00533","빽다방아산","카페","ST001","충청남도 아산시 둔포면 아산밸리중앙로 83","36.923728","127.057059"
"F00534","로얄푸드","음식점","ST001","충청남도 아산시 둔포면 아산밸리서로 138","36.926818","127.057847"
"F00535","지에스25테크노호수점","편의점","ST001","충청남도 아산시 둔포면 아산밸리서로 138","36.926818","127.057847"
"F00536","상필이네급냉삼겹","음식점","ST001","충청남도 아산시 둔포면 아산밸리서로 140","36.926593","127.057881"
"F00537","60계치킨아산","음식점","ST001","충청남도 아산시 둔포면 아산밸리중앙로 80-13","36.922178","127.057013"
"F00538","계전숯불닭발","음식점","ST001","충청남도 아산시 둔포면 아산밸리중앙로 80-13","36.922178","127.057013"
"F00539","곱이곱다","음식점","ST001","충청남도 아산시 둔포면 아산밸리중앙로 80-13","36.922178","127.057013"
"F00540","공릉동원조멸치국수","음식점","ST001","충청남도 아산시 둔포면 아산밸리중앙로 80-13","36.922178","127.057013"
"F00541","두찜아산","음식점","ST001","충청남도 아산시 둔포면 아산밸리중앙로 80-13","36.922178","127.057013"
"F00542","명륜진사갈비둔포","음식점","ST001","충청남도 아산시 둔포면 아산밸리중앙로 80-13","36.922178","127.057013"
"F00543","쇼쿠지아산","음식점","ST001","충청남도 아산시 둔포면 아산밸리중앙로 80-13","36.922178","127.057013"
"F00544","특별난전집","음식점","ST001","충청남도 아산시 둔포면 아산밸리중앙로 80-13","36.922178","127.057013"
"F00545","소지숍","카페","ST001","충청남도 아산시 둔포면 아산밸리중앙로 80-13","36.922178","127.057013"
"F00546","투썸플레이스아산","카페","ST001","충청남도 아산시 둔포면 아산밸리중앙로 80-13","36.922178","127.057013"
"F00547","앤유PC푸드","PC방","ST001","충청남도 아산시 둔포면 아산밸리중앙로 82","36.923277","127.057227"
"F00548","마라공방","음식점","ST001","충청남도 아산시 둔포면 아산밸리중앙로 82","36.923277","127.057227"
"F00549","주식회사 홍가온","음식점","ST001","충청남도 아산시 둔포면 아산밸리중앙로 82","36.923277","127.057227"
"F00550","더벤티아산","카페","ST001","충청남도 아산시 둔포면 아산밸리중앙로 82","36.923277","127.057227"
"F00551","강릉교동짬뽕","음식점","ST001","충청남도 아산시 둔포면 아산밸리중앙로 82","36.923259","127.057227"
"F00552","깡우동아산","음식점","ST001","충청남도 아산시 둔포면 아산밸리중앙로 82","36.923259","127.057227"
"F00553","롯데리아아산","음식점","ST001","충청남도 아산시 둔포면 아산밸리중앙로 82","36.923259","127.057227"
"F00554","솥향기만두","음식점","ST001","충청남도 아산시 둔포면 아산밸리중앙로 82","36.923259","127.057227"
"F00555","요이","음식점","ST001","충청남도 아산시 둔포면 아산밸리중앙로 82","36.923259","127.057227"
"F00556","한식주점종로전집","음식점","ST001","충청남도 아산시 둔포면 아산밸리중앙로 82","36.923259","127.057227"
"F00557","메가엠지씨커피아산","카페","ST001","충청남도 아산시 둔포면 아산밸리중앙로 82","36.923259","127.057227"
"F00558","청지기밥상","음식점","ST001","충청남도 아산시 둔포면 아산밸리서로 142","36.926385","127.057880"
"F00559","송방고기장터 둔포점","음식점","ST001","충청남도 아산시 둔포면 아산밸리서로 146","36.926115","127.057847"
"F00560","역전할머니맥주아산","음식점","ST001","충청남도 아산시 둔포면 아산밸리중앙로 80-16","36.921196","127.057001"
"F00561","육풍아산","음식점","ST001","충청남도 아산시 둔포면 아산밸리중앙로 80-16","36.921196","127.057001"
"F00562","대동집아산","음식점","ST001","충청남도 아산시 둔포면 아산밸리중앙로 80-17","36.920988","127.056979"
"F00563","브이아이피노래클럽","음식점","ST001","충청남도 아산시 둔포면 아산밸리중앙로 80-17","36.920988","127.056979"
"F00564","신육회포차","음식점","ST001","충청남도 아산시 둔포면 아산밸리중앙로 80-17","36.920988","127.056979"
"F00565","아레스","PC방","ST001","충청남도 아산시 둔포면 아산밸리중앙로 85","36.923727","127.057396"
"F00566","딸기노래클럽","음식점","ST001","충청남도 아산시 둔포면 아산밸리중앙로 85","36.923727","127.057396"
"F00567","보보스","음식점","ST001","충청남도 아산시 둔포면 아산밸리중앙로 85","36.923727","127.057396"
"F00568","본죽&비빔밥CAFE아산","음식점","ST001","충청남도 아산시 둔포면 아산밸리중앙로 85","36.923727","127.057396"
"F00569","빨간낙지집","음식점","ST001","충청남도 아산시 둔포면 아산밸리중앙로 85","36.923727","127.057396"
"F00570","인생건어물꽐라","음식점","ST001","충청남도 아산시 둔포면 아산밸리중앙로 85","36.923727","127.057396"
"F00571","멕시모스터디카페","카페","ST001","충청남도 아산시 둔포면 아산밸리중앙로 85","36.923727","127.057396"
"F00572","궁노래클럽","음식점","ST001","충청남도 아산시 둔포면 아산밸리중앙로 80-18","36.920781","127.056990"
"F00573","맥심","음식점","ST001","충청남도 아산시 둔포면 아산밸리중앙로 80-18","36.920781","127.056990"
"F00574","자담치킨아산","음식점","ST001","충청남도 아산시 둔포면 아산밸리중앙로 80-18","36.920781","127.056990"
"F00575","우주라이크커피아산","카페","ST001","충청남도 아산시 둔포면 아산밸리중앙로 80-18","36.920781","127.056990"
"F00576","GS25둔포","편의점","ST001","충청남도 아산시 둔포면 아산밸리중앙로 80-18","36.920781","127.056990"
"F00577","인가네정육식당","음식점","ST001","충청남도 아산시 둔포면 아산밸리서로 150","36.925692","127.057846"
"F00578","담가화로구이","음식점","ST001","충청남도 아산시 둔포면 아산밸리중앙로 80-20","36.920403","127.057012"
"F00579","웅'S송탄쪽갈비아산","음식점","ST001","충청남도 아산시 둔포면 아산밸리중앙로 80-20","36.920403","127.057012"
"F00580","홍콩노래클럽","음식점","ST001","충청남도 아산시 둔포면 아산밸리중앙로 80-20","36.920403","127.057012"
"F00581","홍콩노래홀","음식점","ST001","충청남도 아산시 둔포면 아산밸리중앙로 80-20","36.920403","127.057012"
"F00582","황제노래","음식점","ST001","충청남도 아산시 둔포면 아산밸리중앙로 80-20","36.920403","127.057012"
"F00583","황제노래클럽","음식점","ST001","충청남도 아산시 둔포면 아산밸리중앙로 80-20","36.920403","127.057012"
"F00584","9나인노래클럽","음식점","ST001","충청남도 아산시 둔포면 아산밸리중앙로 80-22","36.920159","127.056989"
"F00585","9나인단란주점","음식점","ST001","충청남도 아산시 둔포면 아산밸리중앙로 80-22","36.920159","127.056989"
"F00586","교촌치킨아산","음식점","ST001","충청남도 아산시 둔포면 아산밸리중앙로 80-22","36.920159","127.056989"
"F00587","산들가든","음식점","ST001","충청남도 아산시 둔포면 아산밸리중앙로 80-22","36.920159","127.056989"
"F00588","크라운호프아산","음식점","ST001","충청남도 아산시 둔포면 아산밸리중앙로 80-22","36.920159","127.056989"
"F00589","밸리푸드","음식점","ST001","충청남도 아산시 둔포면 아산밸리서로 154","36.925385","127.057857"
"F00590","에픽던전버거","음식점","ST001","충청남도 아산시 둔포면 아산밸리서로 154","36.925385","127.057857"
"F00591","타이산","음식점","ST001","충청남도 아산시 둔포면 아산밸리서로 154","36.925385","127.057857"
"F00592","푸라닭아산","음식점","ST001","충청남도 아산시 둔포면 아산밸리서로 154","36.925385","127.057857"
"F00593","숲쉬다","카페","ST001","충청남도 아산시 둔포면 아산밸리서로 154","36.925385","127.057857"
"F00594","써브웨이아산","음식점","ST001","충청남도 아산시 둔포면 아산밸리중앙로 80-24","36.919925","127.057011"
"F00595","썸노래클럽","음식점","ST001","충청남도 아산시 둔포면 아산밸리중앙로 80-24","36.919925","127.057011"
"F00596","시애틀몬스터1706","음식점","ST001","충청남도 아산시 둔포면 아산밸리중앙로 80-26","36.919691","127.057011"
"F00597","황가네맛뒷고기","음식점","ST001","충청남도 아산시 둔포면 운용길 75","36.931277","127.059635"
"F00598","빅쭌부대찌개","음식점","ST001","충청남도 아산시 둔포면 아산밸리서로 160","36.924989","127.057846"
"F00599","약산도아산둔포지점","음식점","ST001","충청남도 아산시 둔포면 아산밸리서로 160","36.924989","127.057846"
"F00600","추억의밥상","음식점","ST001","충청남도 아산시 둔포면 아산밸리서로 80","36.931359","127.059759"
"F00601","골드","음식점","ST001","충청남도 아산시 둔포면 아산밸리서로 168","36.924097","127.057868"
"F00602","아라참치","음식점","ST001","충청남도 아산시 둔포면 아산밸리서로 168","36.924097","127.057868"
"F00603","메가보틀","카페","ST001","충청남도 아산시 둔포면 아산밸리서로 168","36.924097","127.057868"
"F00604","S노래빠","음식점","ST001","충청남도 아산시 둔포면 아산밸리중앙로 89","36.923736","127.057811"
"F00605","라왕마라탕","음식점","ST001","충청남도 아산시 둔포면 아산밸리중앙로 89","36.923736","127.057811"
"F00606","밸리","음식점","ST001","충청남도 아산시 둔포면 아산밸리중앙로 89","36.923736","127.057811"
"F00607","빠리3050","음식점","ST001","충청남도 아산시 둔포면 아산밸리중앙로 89","36.923736","127.057811"
"F00608","빨간여우","음식점","ST001","충청남도 아산시 둔포면 아산밸리중앙로 89","36.923736","127.057811"
"F00609","애플꼬마김밥","음식점","ST001","충청남도 아산시 둔포면 아산밸리중앙로 89","36.923736","127.057811"
"F00610","애플노래홀","음식점","ST001","충청남도 아산시 둔포면 아산밸리중앙로 89","36.923736","127.057811"
"F00611","자스민","음식점","ST001","충청남도 아산시 둔포면 아산밸리중앙로 89","36.923736","127.057811"
"F00612","쭈꾸미이선생","음식점","ST001","충청남도 아산시 둔포면 아산밸리중앙로 89","36.923736","127.057811"
"F00613","테크노","음식점","ST001","충청남도 아산시 둔포면 아산밸리중앙로 89","36.923736","127.057811"
"F00614","틈새라면","음식점","ST001","충청남도 아산시 둔포면 아산밸리중앙로 89","36.923736","127.057811"
"F00615","컴포즈커피아산","카페","ST001","충청남도 아산시 둔포면 아산밸리중앙로 89","36.923736","127.057811"
"F00616","먹거리","음식점","ST001","충청남도 아산시 둔포면 아산밸리중앙로 84-34","36.920781","127.057427"
"F00617","아이캔커피","카페","ST001","충청남도 아산시 둔포면 아산밸리중앙로 84-34","36.920781","127.057427"
"F00618","모모노래클럽","음식점","ST001","충청남도 아산시 둔포면 아산밸리중앙로 84-35","36.920402","127.057461"
"F00619","모모단란주점","음식점","ST001","충청남도 아산시 둔포면 아산밸리중앙로 84-35","36.920402","127.057461"
"F00620","보스노래클럽","음식점","ST001","충청남도 아산시 둔포면 아산밸리중앙로 84-35","36.920402","127.057461"
"F00621","상병학의수타짜장마을","음식점","ST001","충청남도 아산시 둔포면 아산밸리중앙로 84-35","36.920402","127.057461"
"F00622","양푼갈비스토리아산","음식점","ST001","충청남도 아산시 둔포면 아산밸리중앙로 84-35","36.920402","127.057461"
"F00623","제이제이곱창","음식점","ST001","충청남도 아산시 둔포면 아산밸리중앙로 84-35","36.920402","127.057461"
"F00624","조리고","음식점","ST001","충청남도 아산시 둔포면 아산밸리중앙로 84-35","36.920402","127.057461"
"F00625","청춘식당","음식점","ST001","충청남도 아산시 둔포면 아산밸리중앙로 84-35","36.920402","127.057461"
"F00626","현화정","음식점","ST001","충청남도 아산시 둔포면 아산밸리중앙로 84-35","36.920402","127.057461"
"F00627","세븐일레븐천안성진로점","편의점","ST001","충청남도 천안시 서북구 입장면 성진로 591","36.912171","127.196613"
"F00628","만개","음식점","ST001","충청남도 아산시 둔포면 아산밸리서로 76","36.931530","127.060163"
"F00629","갓츠킹아산","음식점","ST001","충청남도 아산시 둔포면 중앙공원로 8","36.922853","127.057867"
"F00630","슈퍼스타노래클럽","음식점","ST001","충청남도 아산시 둔포면 중앙공원로 8","36.922853","127.057867"
"F00631","지코바아산","음식점","ST001","충청남도 아산시 둔포면 중앙공원로 8","36.922853","127.057867"
"F00632","철길부산집아산","음식점","ST001","충청남도 아산시 둔포면 중앙공원로 8","36.922853","127.057867"
"F00633","키스","음식점","ST001","충청남도 아산시 둔포면 중앙공원로 8","36.922853","127.057867"
"F00634","버거킹둔포","음식점","ST001","충청남도 아산시 둔포면 중앙공원로 52","36.918952","127.057426"
"F00635","못생긴뚱돼지둔포","음식점","ST001","충청남도 아산시 둔포면 중앙공원로 16","36.922105","127.057866"
"F00636","백소정아산","음식점","ST001","충청남도 아산시 둔포면 중앙공원로 16","36.922105","127.057866"
"F00637","비비큐치킨앤비어아산","음식점","ST001","충청남도 아산시 둔포면 중앙공원로 16","36.922105","127.057866"
"F00638","호맥아산","음식점","ST001","충청남도 아산시 둔포면 중앙공원로 16","36.922105","127.057866"
"F00639","오아시스카페","카페","ST001","충청남도 아산시 둔포면 중앙공원로 16","36.922105","127.057866"
"F00640","고기굽는한식","음식점","ST001","충청남도 아산시 둔포면 아산밸리서로 72","36.931773","127.060556"
"F00641","전주식당","음식점","ST001","충청남도 아산시 둔포면 아산밸리서로 72","36.931773","127.060556"
"F00642","진수성찬","음식점","ST001","충청남도 아산시 둔포면 아산밸리서로 70","36.932061","127.060702"
"F00643","크로플판다","카페","ST001","충청남도 아산시 둔포면 아산밸리서로 70","36.932061","127.060702"
"F00644","비너스노래클럽","음식점","ST001","충청남도 아산시 둔포면 중앙공원로 36","36.920393","127.057842"
"F00645","퀸노래클럽","음식점","ST001","충청남도 아산시 둔포면 중앙공원로 36","36.920393","127.057842"
"F00646","펍스타","음식점","ST001","충청남도 아산시 둔포면 중앙공원로 36","36.920393","127.057842"
"F00647","포시즌라이브8090","음식점","ST001","충청남도 아산시 둔포면 중앙공원로 36","36.920393","127.057842"
"F00648","화화","음식점","ST001","충청남도 아산시 둔포면 중앙공원로 36","36.920393","127.057842"
"F00649","다이아노래클럽","음식점","ST001","충청남도 아산시 둔포면 중앙공원로 38","36.920159","127.057842"
"F00650","몬드노래클럽","음식점","ST001","충청남도 아산시 둔포면 중앙공원로 38","36.920159","127.057842"
"F00651","별밤노래클럽","음식점","ST001","충청남도 아산시 둔포면 중앙공원로 38","36.920159","127.057842"
"F00652","비타민노래주점","음식점","ST001","충청남도 아산시 둔포면 중앙공원로 38","36.920159","127.057842"
"F00653","사백돈","음식점","ST001","충청남도 아산시 둔포면 중앙공원로 38","36.920159","127.057842"
"F00654","현주식당","음식점","ST001","충청남도 아산시 둔포면 중앙공원로 38","36.920159","127.057842"
"F00655","메콩타이아산","음식점","ST001","충청남도 아산시 둔포면 중앙공원로 48","36.919258","127.057763"
"F00656","이우철한방누룽지삼계탕","음식점","ST001","충청남도 아산시 둔포면 중앙공원로 48","36.919258","127.057763"
"F00657","나리식당","음식점","ST001","충청남도 아산시 음봉면 연암율금로 500","36.879537","127.074816"
"F00658","24시전주명가콩나물국밥","음식점","ST001","충청남도 아산시 둔포면 아산밸리중앙로 96","36.923267","127.058439"
"F00659","진원소우아산","음식점","ST001","충청남도 아산시 둔포면 아산밸리중앙로 96","36.923267","127.058439"
"F00660","김밥천국","음식점","ST001","충청남도 아산시 둔포면 아산밸리중앙로 96","36.923312","127.058451"
"F00661","김밥천국(테크노밸리점)","음식점","ST001","충청남도 아산시 둔포면 아산밸리중앙로 96","36.923312","127.058451"
"F00662","라쿠치나파스타","음식점","ST001","충청남도 아산시 둔포면 아산밸리중앙로 96","36.923312","127.058451"
"F00663","빵집오빠 & coffee 아산둔포점","음식점","ST001","충청남도 아산시 둔포면 아산밸리중앙로 96","36.923312","127.058451"
"F00664","GS25둔포","편의점","ST001","충청남도 아산시 둔포면 중앙공원로17번길 3-23","36.922934","127.058405"
"F00665","세븐일레븐둔포","편의점","ST001","충청남도 아산시 둔포면 중앙공원로17번길 3-23","36.922934","127.058405"
"F00666","백년가짬뽕","음식점","ST001","충청남도 아산시 둔포면 중앙공원로17번길 3-21","36.922808","127.058394"
"F00667","육달","음식점","ST001","충청남도 아산시 둔포면 중앙공원로17번길 3-17","36.922673","127.058394"
"F00668","벨리한정식뷔페","음식점","ST001","충청남도 아산시 둔포면 중앙공원로17번길 3-15","36.922547","127.058383"
"F00669","원조항아리칼국수","음식점","ST001","충청남도 아산시 둔포면 중앙공원로17번길 3-13","36.922429","127.058405"
"F00670","미스터리","음식점","ST001","충청남도 아산시 둔포면 중앙공원로17번길 3-11","36.922285","127.058405"
"F00671","고기한마당","음식점","ST001","충청남도 아산시 둔포면 중앙공원로17번길 3-5","36.922177","127.058394"
"F00672","장충동할머니족발","음식점","ST001","충청남도 아산시 음봉면 연암율금로 502-1","36.879636","127.075119"
"F00673","일품참숯갈비","음식점","ST001","충청남도 아산시 둔포면 중앙공원로17번길 3","36.922033","127.058393"
"F00674","꽃돼지국밥","음식점","ST001","충청남도 아산시 둔포면 중앙공원로33번길 3-13","36.921663","127.058393"
"F00675","민영기염소탕","음식점","ST001","충청남도 아산시 둔포면 중앙공원로33번길 3-11","36.921537","127.058404"
"F00676","서연푸드","음식점","ST001","충청남도 아산시 둔포면 중앙공원로33번길 3-9","36.921393","127.058404"
"F00677","우미가꽃갈비","음식점","ST001","충청남도 아산시 둔포면 중앙공원로33번길 3-5","36.921105","127.058404"
"F00678","곱창입니다만","음식점","ST001","충청남도 아산시 둔포면 중앙공원로33번길 3-3","36.920988","127.058404"
"F00679","바다의왕국","음식점","ST001","충청남도 아산시 둔포면 중앙공원로33번길 3-3","36.920988","127.058404"
"F00680","독도해물알찜&차돌쭈꾸미찜","음식점","ST001","충청남도 아산시 둔포면 중앙공원로33번길 3-1","36.920870","127.058393"
"F00681","큰맘할매순대국아산","음식점","ST001","충청남도 아산시 둔포면 중앙공원로33번길 3-1","36.920870","127.058393"
"F00682","시골집어죽","음식점","ST001","충청남도 아산시 둔포면 아산밸리중앙로 98","36.923240","127.058742"
"F00683","정선골","음식점","ST001","충청남도 아산시 둔포면 아산밸리중앙로 98","36.923240","127.058742"
"F00684","한솥도시락 아산테크노밸리점","음식점","ST001","충청남도 아산시 둔포면 아산밸리중앙로 98","36.923240","127.058742"
"F00685","후라이드참잘하는집아산","음식점","ST001","충청남도 아산시 둔포면 아산밸리중앙로 98","36.923240","127.058742"
"F00686","카페그래비티","카페","ST001","충청남도 아산시 둔포면 중앙공원로33번길 3","36.920726","127.058392"
"F00687","선우식당","음식점","ST001","충청남도 아산시 음봉면 월암로 494","36.879663","127.075433"
"F00688","연암한우촌생등심","음식점","ST001","충청남도 아산시 음봉면 월암로 494","36.879663","127.075433"
"F00689","일단마포아산","음식점","ST001","충청남도 아산시 둔포면 중앙공원로17번길 3-20","36.922663","127.058764"
"F00690","95베이커리","음식점","ST001","충청남도 아산시 둔포면 중앙공원로17번길 3-16","36.922528","127.058764"
"F00691","일미집","음식점","ST001","충청남도 아산시 둔포면 중앙공원로17번길 3-14","36.922411","127.058764"
"F00692","셰프의한상","음식점","ST001","충청남도 아산시 둔포면 중앙공원로17번길 9-19","36.922817","127.058865"
"F00693","착한초밥","음식점","ST001","충청남도 아산시 둔포면 중앙공원로17번길 3-12","36.922294","127.058786"
"F00694","김밥나라아산","음식점","ST001","충청남도 아산시 둔포면 아산밸리중앙로 100","36.923258","127.059034"
"F00695","막창도둑","음식점","ST001","충청남도 아산시 둔포면 아산밸리중앙로 100","36.923258","127.059034"
"F00696","탕화쿵푸마라탕","음식점","ST001","충청남도 아산시 둔포면 아산밸리중앙로 100","36.923258","127.059034"
"F00697","인주수육순대국밥","음식점","ST001","충청남도 아산시 둔포면 중앙공원로17번길 9-17","36.922654","127.058966"
"F00698","탕정집쭈꾸미아산","음식점","ST001","충청남도 아산시 둔포면 중앙공원로17번길 9-15","36.922528","127.058966"
"F00699","참좋은당신","음식점","ST001","충청남도 아산시 둔포면 중앙공원로33번길 23-15","36.920735","127.058740"
"F00700","로드","카페","ST001","충청남도 아산시 음봉면 연암율금로 507","36.880104","127.075333"
"F00701","공단맥주","음식점","ST001","충청남도 아산시 둔포면 중앙공원로17번길 9-1","36.922033","127.058943"
"F00702","멕시카나아산","음식점","ST001","충청남도 아산시 둔포면 아산밸리중앙로 102","36.923258","127.059360"
"F00703","부라보맥주아산","음식점","ST001","충청남도 아산시 둔포면 아산밸리중앙로 102","36.923258","127.059360"
"F00704","산청자매훠궈","음식점","ST001","충청남도 아산시 둔포면 아산밸리중앙로 102","36.923258","127.059360"
"F00705","새마을뼈해장국","음식점","ST001","충청남도 아산시 둔포면 아산밸리중앙로 102","36.923258","127.059360"
"F00706","천안신강양꼬치","음식점","ST001","충청남도 아산시 둔포면 아산밸리중앙로 102","36.923258","127.059360"
"F00707","이마트24아산","편의점","ST001","충청남도 아산시 둔포면 아산밸리중앙로 102","36.923258","127.059360"
"F00708","가원","음식점","ST001","충청남도 아산시 둔포면 중앙공원로17번길 9-24","36.922934","127.059337"
"F00709","백옥양꼬치둔포","음식점","ST001","충청남도 아산시 둔포면 중앙공원로17번길 9-22","36.922807","127.059348"
"F00710","삼성웰스토리니프코","음식점","ST001","충청남도 아산시 둔포면 아산밸리남로 146","36.915608","127.058793"
"F00711","루미누","카페","ST001","충청남도 아산시 둔포면 중앙공원로33번길 23-11","36.920744","127.059088"
"F00712","용원양꼬치&우육면","음식점","ST001","충청남도 아산시 둔포면 중앙공원로17번길 9-14","36.922546","127.059348"
"F00713","오자매","음식점","ST001","충청남도 아산시 둔포면 아산밸리로406번길 26","36.904767","127.060265"
"F00714","자매한정식뷔페","음식점","ST001","충청남도 아산시 둔포면 아산밸리로406번길 26","36.904767","127.060265"
"F00715","정심 갈비찜","음식점","ST001","충청남도 아산시 둔포면 중앙공원로17번길 9-8","36.922294","127.059359"
"F00716","큰집","음식점","ST001","충청남도 아산시 둔포면 산업밸리길 1","36.905136","127.060254"
"F00717","노걸대","음식점","ST001","충청남도 아산시 둔포면 중앙공원로17번길 15-23","36.922933","127.059561"
"F00718","떡.보","음식점","ST001","충청남도 아산시 둔포면 중앙공원로33번길 27-9","36.921203","127.059324"
"F00719","한영희수산","음식점","ST001","충청남도 아산시 둔포면 중앙공원로33번길 27-9","36.921203","127.059324"
"F00720","명품활아구전문점","음식점","ST001","충청남도 아산시 둔포면 중앙공원로17번길 15-11","36.922420","127.059561"
"F00721","비밀베이커리","음식점","ST001","충청남도 아산시 둔포면 중앙공원로33번길 23-9","36.920753","127.059335"
"F00722","자매한정식뷔페","음식점","ST001","충청남도 아산시 둔포면 아산밸리로406번길 24","36.904740","127.060490"
"F00723","황제갈비살","음식점","ST001","충청남도 아산시 둔포면 중앙공원로17번길 15-9","36.922303","127.059572"
"F00724","츠바오","음식점","ST001","충청남도 아산시 둔포면 중앙공원로17번길 15-1","36.922032","127.059561"
"F00725","박푸드한식뷔페","음식점","ST001","충청남도 아산시 둔포면 아산밸리로388번길 27","36.906083","127.060255"
"F00726","송가네손두부","음식점","ST001","충청남도 아산시 둔포면 중앙공원로33번길 27-7","36.921185","127.059493"
"F00727","백년불고기","음식점","ST001","충청남도 아산시 둔포면 아산밸리중앙로 108","36.923258","127.059865"
"F00728","신통치킨","음식점","ST001","충청남도 아산시 둔포면 아산밸리중앙로 108","36.923258","127.059865"
"F00729","청년보쌈","음식점","ST001","충청남도 아산시 둔포면 아산밸리중앙로 108","36.923258","127.059865"
"F00730","톱텍아산구내식당","음식점","ST001","충청남도 아산시 둔포면 아산밸리로 122","36.930132","127.061722"
"F00731","옛날그맛떡볶이","음식점","ST001","충청남도 아산시 둔포면 아산밸리로406번길 22","36.904767","127.060725"
"F00732","가마솥영양탕","음식점","ST001","충청남도 아산시 둔포면 중앙공원로33번길 27-5","36.921167","127.059661"
"F00733","가마솥순대국밥아산","음식점","ST001","충청남도 아산시 둔포면 중앙공원로17번길 15-24","36.922951","127.059932"
"F00734","장군꼬들살 전문점","음식점","ST001","충청남도 아산시 둔포면 중앙공원로17번길 15-10","36.922681","127.059920"
"F00735","소유카페","카페","ST001","충청남도 아산시 둔포면 중앙공원로33번길 23-5","36.920726","127.059661"
"F00736","옛집","음식점","ST001","충청남도 아산시 둔포면 중앙공원로17번길 15-8","36.922293","127.059920"
"F00737","전여사생태랑동태랑","음식점","ST001","충청남도 아산시 둔포면 중앙공원로17번길 15-6","36.922167","127.059931"
"F00738","하하양꼬치","음식점","ST001","충청남도 아산시 둔포면 중앙공원로17번길 15-4","36.922050","127.059920"
"F00739","꼬지사께","음식점","ST001","충청남도 아산시 둔포면 아산밸리중앙로 110","36.923267","127.060145"
"F00740","인향연","음식점","ST001","충청남도 아산시 둔포면 아산밸리중앙로 110","36.923267","127.060145"
"F00741","희누리떡케이크","음식점","ST001","충청남도 아산시 둔포면 아산밸리중앙로 110","36.923267","127.060145"
"F00742","비1379","카페","ST001","충청남도 아산시 둔포면 아산밸리중앙로 110","36.923267","127.060145"
"F00743","파스타인레스트","음식점","ST001","충청남도 아산시 둔포면 중앙공원로33번길 27-3","36.921185","127.059829"
"F00744","부잣집설렁탕아산","음식점","ST001","충청남도 아산시 둔포면 중앙공원로 3-20","36.922933","127.060145"
"F00745","햇살약국","약국","ST001","충청남도 아산시 둔포면 아산밸리중앙로 80-13, 101-102호","36.915582","127.059573"
"F00746","하마약국","약국","ST001","충청남도 아산시 둔포면 아산밸리중앙로 83, 더원프라자 102호","36.916960","127.059621"
"F00747","나능이.능이버섯백숙아산","음식점","ST001","충청남도 아산시 둔포면 중앙공원로33번길 37","36.922176","127.060144"
"F00748","큰온누리약국","약국","ST001","충청남도 아산시 둔포면 아산밸리중앙로 82, G플레이스 110호, 111호","36.916481","127.059788"
"F00749","삼성약국","약국","ST001","충청남도 아산시 둔포면 아산밸리중앙로 85","36.916960","127.059966"
"F00750","GS25아산테크노","편의점","ST001","충청남도 아산시 둔포면 아산밸리로406번길 16","36.904748","127.061421"
"F00751","지에스25아산테크노","편의점","ST001","충청남도 아산시 둔포면 아산밸리로406번길 16","36.904748","127.061421"
"F00752","쌈싸먹는김치찌개서림식당","음식점","ST001","충청남도 아산시 음봉면 아산밸리로 461","36.899269","127.063447"
"F00753","양평해장국아산","음식점","ST001","충청남도 아산시 음봉면 아산밸리로 461","36.899269","127.063447"
"F00754","카페컨티뉴","음식점","ST001","충청남도 아산시 음봉면 아산밸리로 461","36.899269","127.063447"
"F00755","행복한밥상행복푸드","음식점","ST001","충청남도 아산시 음봉면 아산밸리로 461","36.899269","127.063447"
"F00756","호남가정식백반","음식점","ST001","충청남도 아산시 음봉면 아산밸리로 461","36.899269","127.063447"
"F00757","가온에프앤에스유성기업","음식점","ST001","충청남도 아산시 둔포면 아산밸리동로 22","36.934429","127.064868"
"F00758","에이스타워","카페","ST001","충청남도 아산시 둔포면 아산밸리로 296-21","36.914372","127.060610"
"F00759","김치찌개미화식당","음식점","ST001","충청남도 아산시 둔포면 산업밸리길 38","36.906073","127.061837"
"F00760","돈돼지생삼겹살","음식점","ST001","충청남도 아산시 둔포면 산업밸리길 19","36.905090","127.062128"
"F00761","온정순대국","음식점","ST001","충청남도 아산시 둔포면 산업밸리길 22","36.904856","127.062622"
"F00762","가남중화요리","음식점","ST001","충청남도 아산시 둔포면 아산밸리로 400","36.905144","127.062656"
"F00763","제이앤제이라면","음식점","ST001","충청남도 아산시 둔포면 아산밸리로 394","36.905586","127.062634"
"F00764","천안소문난계란김밥","음식점","ST001","충청남도 아산시 둔포면 아산밸리로 394","36.905586","127.062634"
"F00765","세븐일레븐아산둔포스카이점","편의점","ST001","충청남도 아산시 둔포면 아산밸리로 394","36.905586","127.062634"
"F00766","박혜경예담추어명가아산","음식점","ST001","충청남도 아산시 둔포면 아산밸리로 388","36.906072","127.062623"
"F00767","세븐일레븐 천안물류센터점","편의점","ST001","충청남도 천안시 서북구 성거읍 모전1길 353","36.909052","127.191870"
"F00768","(주)아워홈 한화모멘텀아산점","음식점","ST001","충청남도 아산시 둔포면 아산밸리로 312","36.913534","127.061877"
"F00769","푸디스트한화아산1사업장점","음식점","ST001","충청남도 아산시 둔포면 아산밸리로 312","36.913534","127.061877"
"F00770","푸디스트한화에어로스페이스아산사업장점","음식점","ST001","충청남도 아산시 둔포면 아산밸리남로 144","36.914885","127.062271"
"F00771","집밥권여사","음식점","ST001","충청남도 아산시 둔포면 아산밸리로 296-7","36.914390","127.062405"
"F00772","착한식당","음식점","ST001","충청남도 아산시 둔포면 아산밸리로 304-4","36.914047","127.062551"
"F00773","삼성웰스토리이녹스첨단소재","음식점","ST001","충청남도 아산시 둔포면 아산밸리로 171","36.926770","127.064099"
"F00774","북경중화요리","음식점","ST001","충청남도 아산시 둔포면 아산밸리로 298","36.914380","127.062697"
"F00775","페리카나","음식점","ST001","충청남도 아산시 둔포면 아산밸리로 298","36.914380","127.062697"
"F00776","행복푸드","음식점","ST001","충청남도 아산시 둔포면 아산밸리로 298","36.914380","127.062697"
"F00777","세븐일레븐아산테크노벨리","편의점","ST001","충청남도 아산시 둔포면 아산밸리로 298","36.914380","127.062697"
"F00778","동원홈푸드포인트엔지니어링","음식점","ST001","충청남도 아산시 둔포면 아산밸리로 89","36.931247","127.065842"
"F00779","아워홈인바디","음식점","ST001","충청남도 천안시 서북구 입장면 흑암길 15","36.933993","127.186814"
"F00780","삼성웰스토리신라엔지니어링아산","음식점","ST001","충청남도 아산시 둔포면 아산밸리로 271","36.916254","127.063776"
"F00781","정푸드","음식점","ST001","충청남도 아산시 둔포면 아산밸리동로 58","36.931327","127.067436"
"F00782","지에스25아산연암율금점","편의점","ST001","충청남도 아산시 음봉면 연암율금로 562","36.883264","127.079643"
"F00783","아이푸드","음식점","ST001","충청남도 아산시 둔포면 아산밸리남로 190","36.917704","127.065168"
"F00784","지에스25입장용정점","편의점","ST001","충청남도 천안시 서북구 입장면 용정도하길 147","36.922096","127.188334"
"F00785","신성구내식당","음식점","ST001","충청남도 천안시 서북구 입장면 용정도하길 183","36.924657","127.187207"
"F00786","동원홈푸드동원시스템즈아산공장점주","음식점","ST001","충청남도 아산시 둔포면 아산밸리동로 100","36.927768","127.068050"
"F00787","넉넉한집","음식점","ST001","충청남도 아산시 둔포면 아산밸리동로 265","36.914829","127.066816"
"F00788","웰빙한식","음식점","ST001","충청남도 아산시 둔포면 아산밸리동로 227","36.918046","127.066886"
"F00789","최고집곰탕","음식점","ST001","충청남도 천안시 서북구 직산읍 성진로 490","36.910449","127.185702"
"F00790","또바기한식뷔페","음식점","ST001","충청남도 아산시 음봉면 신휴길 324","36.904861","127.069724"
"F00791","세븐일레븐아산염작점","편의점","ST001","충청남도 아산시 둔포면 아산밸리동로 261-11","36.915819","127.068231"
"F00792","굴다리식당","음식점","ST001","충청남도 천안시 서북구 직산읍 성진로 486","36.910531","127.185264"
"F00793","김밥천국","음식점","ST001","충청남도 천안시 서북구 직산읍 성진로 463","36.911480","127.183393"
"F00794","참맛한정식뷔페","음식점","ST001","충청남도 천안시 서북구 직산읍 성진로 463","36.911480","127.183393"
"F00795","지에스25뉴북천안IC점","편의점","ST001","충청남도 천안시 서북구 직산읍 성진로 463","36.911480","127.183393"
"F00796","요리왕","음식점","ST001","충청남도 천안시 서북구 직산읍 성진로 465","36.910976","127.183133"
"F00797","한뚝수육국밥판정점","음식점","ST001","충청남도 천안시 서북구 직산읍 성진로 465","36.910976","127.183133"
"F00798","달콤카페","카페","ST001","충청남도 천안시 서북구 직산읍 성진로 465","36.910976","127.183133"
"F00799","지에스25뉴북천안IC점","편의점","ST001","충청남도 천안시 서북구 직산읍 성진로 465","36.910976","127.183133"
"F00800","이마트24북천안휴게소점","편의점","ST001","충청남도 천안시 서북구 직산읍 삼사로 1663","36.914986","127.183210"
"F00801","마당놀이통닭","음식점","ST001","충청남도 천안시 서북구 성환읍 연암로 361","36.947939","127.164293"
"F00802","성환휠링시티면옥카페","음식점","ST001","충청남도 천안시 서북구 성환읍 연암로 357","36.947877","127.163575"
"F00803","황금식당한식뷔페","음식점","ST001","충청남도 천안시 서북구 성환읍 연암로 357","36.947877","127.163575"
"F00804","세븐일레븐 천안성환도하점","편의점","ST001","충청남도 천안시 서북구 성환읍 연암로 357","36.947877","127.163575"
"F00805","세븐일레븐천안성환도하점","편의점","ST001","충청남도 천안시 서북구 성환읍 연암로 357","36.947877","127.163575"
"F00806","판정리카페","음식점","ST001","충청남도 천안시 서북구 직산읍 성진로 430","36.910487","127.178677"
"F00807","판정리한식뷔페","음식점","ST001","충청남도 천안시 서북구 직산읍 성진로 430","36.910487","127.178677"
"F00808","들밥푸드","음식점","ST001","충청남도 천안시 서북구 직산읍 성진로 422","36.910614","127.178229"
"F00809","제일진주냉면","음식점","ST001","충청남도 천안시 서북구 직산읍 성진로 422","36.910614","127.178229"
"F00810","북촌카페","카페","ST001","충청남도 천안시 서북구 직산읍 성진로 422","36.910614","127.178229"
"F00811","대박집","음식점","ST001","충청남도 천안시 서북구 직산읍 성진로 425","36.911055","127.178151"
"F00812","한미래치킨","음식점","ST001","충청남도 천안시 서북구 성환읍 안궁1길 2","36.956215","127.132188"
"F00813","차칸맛집","음식점","ST001","충청남도 아산시 음봉면 신의길 159","36.896436","127.083617"
"F00814","미성","음식점","ST001","충청남도 천안시 서북구 성환읍 잠실길 7","36.951143","127.146909"
"F00815","대박뷔페","음식점","ST001","충청남도 천안시 서북구 성환읍 잠실길 33","36.950085","127.149310"
"F00816","아워홈연암대학교점","음식점","ST001","충청남도 천안시 서북구 성환읍 연암로 313","36.946905","127.155748"
"F00817","미래","음식점","ST001","충청남도 천안시 서북구 성환읍 무내2길 76","36.945771","127.155364"
"F00818","가온","음식점","ST001","충청남도 천안시 서북구 성환읍 잠실길 5","36.949792","127.146491"
"F00819","새봄푸드","음식점","ST001","충청남도 천안시 서북구 성환읍 잠실길 5","36.949792","127.146491"
"F00820","이마트24천안성환신가점","편의점","ST001","충청남도 천안시 서북구 성환읍 가동길 2","36.951611","127.114474"
"F00821","밥먹고합시다","음식점","ST001","충청남도 천안시 서북구 성환읍 와룡길 340","36.951539","127.114822"
"F00822","세븐일레븐성환수향공단점","편의점","ST001","충청남도 천안시 서북구 성환읍 지족향길 66","36.949414","127.145974"
"F00823","신가떡방앗간","음식점","ST001","충청남도 천안시 서북구 성환읍 성환신흥1길 119-6","36.950747","127.113732"
"F00824","다솔식당","음식점","ST001","충청남도 천안시 서북구 성환읍 연암로 148","36.947618","127.147711"
"F00825","시골집","음식점","ST001","충청남도 천안시 서북구 직산읍 산직촌길 7","36.908993","127.171257"
"F00826","CU천안대로점","편의점","ST001","충청남도 천안시 서북구 성환읍 천안대로 2374-2","36.950430","127.131920"
"F00827","세븐일레븐천안직산포도점","편의점","ST001","충청남도 천안시 서북구 직산읍 성진로 324-3","36.906545","127.169209"
"F00828","대오식당","음식점","ST001","충청남도 천안시 서북구 성환읍 임리길 7","36.928233","127.086548"
"F00829","연주한식뷔페","음식점","ST001","충청남도 천안시 서북구 성환읍 율금1길 8-6","36.892732","127.095763"
"F00830","양평해장국직산점","음식점","ST001","충청남도 천안시 서북구 직산읍 성진로 307","36.905998","127.167626"
"F00831","지에스25연암대로점","편의점","ST001","충청남도 천안시 서북구 성환읍 율금1길 8-8","36.892678","127.096201"
"F00832","수향묵밥집","음식점","ST001","충청남도 천안시 서북구 성환읍 연암로 9","36.948987","127.133365"
"F00833","세븐일레븐천안성환수향점","편의점","ST001","충청남도 천안시 서북구 성환읍 연암로 201","36.943596","127.150498"
"F00834","석곡리식당","음식점","ST001","충청남도 천안시 서북구 직산읍 부송로 87-7","36.888292","127.103678"
"F00835","연카페","카페","ST001","충청남도 천안시 서북구 직산읍 부송로 87-7","36.888292","127.103678"
"F00836","생태마을","음식점","ST001","충청남도 천안시 서북구 직산읍 직산안길 48","36.900867","127.163766"
"F00837","세븐일레븐천안직삼군동점","편의점","ST001","충청남도 천안시 서북구 직산읍 직산안길 48","36.900867","127.163766"
"F00838","샘터식당","음식점","ST001","충청남도 천안시 서북구 성환읍 천안대로 2347","36.948150","127.132286"
"F00839","원조아구복해물","음식점","ST001","충청남도 천안시 서북구 직산읍 군동1길 1","36.901237","127.163509"
"F00840","점촌식당","음식점","ST001","충청남도 천안시 서북구 성환읍 성월수향길 306","36.939519","127.153970"
"F00841","아워홈현대캐피탈배구단","음식점","ST001","충청남도 천안시 서북구 직산읍 석양길 45-1","36.888849","127.105440"
"F00842","구직산떡방앗간","음식점","ST001","충청남도 천안시 서북구 직산읍 직산안길 57","36.901589","127.162892"
"F00843","헬로통닭","음식점","ST001","충청남도 천안시 서북구 성환읍 성월수향길 303-2","36.939339","127.153734"
"F00844","춘하추동","음식점","ST001","충청남도 천안시 서북구 직산읍 직산안길 101","36.904524","127.164324"
"F00845","세븐일레븐천안성환일등점","편의점","ST001","충청남도 천안시 서북구 성환읍 천안대로 2334","36.946951","127.133160"
"F00846","호남맛집","음식점","ST001","충청남도 천안시 서북구 직산읍 직산안길 63","36.902076","127.162647"
"F00847","구직산원조묵집","음식점","ST001","충청남도 천안시 서북구 직산읍 성진로 273","36.905435","127.164180"
"F00848","수향고을","음식점","ST001","충청남도 천안시 서북구 성환읍 신향촌길 21","36.937724","127.154999"
"F00849","남가네","음식점","ST001","충청남도 천안시 서북구 성환읍 천안대로 2328","36.946437","127.133372"
"F00850","천안예사랑호두과자","음식점","ST001","충청남도 천안시 서북구 성환읍 천안대로 2320","36.945851","127.133483"
"F00851","예연에프앤씨","음식점","ST001","충청남도 천안시 서북구 성환읍 왕지1길 51","36.903575","127.092512"
"F00852","소울","음식점","ST001","충청남도 천안시 서북구 성환읍 율금3길 75","36.898679","127.096040"
"F00853","그린푸드","음식점","ST001","충청남도 천안시 서북구 직산읍 군수1길 222","36.899542","127.157312"
"F00854","호반휴게소","음식점","ST001","충청남도 천안시 서북구 성환읍 성월수향길 258-2","36.938471","127.148894"
"F00855","호숫가","음식점","ST001","충청남도 천안시 서북구 성환읍 성월수향길 258-10","36.937813","127.148702"
"F00856","셰필드브렉퍼스트클럽","카페","ST001","충청남도 천안시 서북구 성환읍 성월수향길 251-11","36.938446","127.147424"
"F00857","넝쿨푸드","음식점","ST001","충청남도 천안시 서북구 성환읍 율금5길 88","36.893595","127.108744"
"F00858","세븐일레븐천안율금공단점","편의점","ST001","충청남도 천안시 서북구 성환읍 연암율금로 180","36.896626","127.104508"
"F00859","잔치","음식점","ST001","충청남도 천안시 서북구 성환읍 대홍4길 10","36.939014","127.139196"
"F00860","이마트24천안직산상덕점","편의점","ST001","충청남도 천안시 서북구 직산읍 양당율금길 1-1","36.891029","127.124593"
"F00861","모이자","음식점","ST001","충청남도 천안시 서북구 성환읍 율금1길 221-34","36.905497","127.099527"
"F00862","스모프치킨","음식점","ST001","충청남도 천안시 서북구 성환읍 율금1길 221-34","36.905497","127.099527"
"F00863","왕대박삼겹살","음식점","ST001","충청남도 천안시 서북구 성환읍 율금1길 221-34","36.905497","127.099527"
"F00864","플라워앤커피군것질카페별","카페","ST001","충청남도 천안시 서북구 성환읍 율금1길 208","36.903586","127.101398"
"F00865","페리카나부영치킨","음식점","ST001","충청남도 천안시 서북구 직산읍 천안대로 1718","36.894149","127.138677"
"F00866","세븐일레븐직산","편의점","ST001","충청남도 천안시 서북구 직산읍 천안대로 1718","36.894149","127.138677"
"F00867","홍가네부대찌개","음식점","ST001","충청남도 천안시 서북구 직산읍 군수1길 8","36.893889","127.137544"
"F00868","풀숲","카페","ST001","충청남도 천안시 서북구 성환읍 왕지1길 121","36.908111","127.099126"
"F00869","동광실업구내식당","음식점","ST001","충청남도 천안시 서북구 직산읍 상덕로 370","36.893181","127.134267"
"F00870","김밥과분식","음식점","ST001","충청남도 천안시 서북구 직산읍 군수1길 1","36.893899","127.137095"
"F00871","시골집","음식점","ST001","충청남도 천안시 서북구 직산읍 군수1길 1","36.893899","127.137095"
"F00872","시름세할매묵집","음식점","ST001","충청남도 천안시 서북구 직산읍 군수1길 5","36.894043","127.137353"
"F00873","민지네숯불구이","음식점","ST001","충청남도 천안시 서북구 직산읍 군수1길 32","36.895058","127.140104"
"F00874","애그카페24천안직산점","카페","ST001","충청남도 천안시 서북구 직산읍 군수1길 13","36.894394","127.138050"
"F00875","하쿠나마타타","음식점","ST001","충청남도 천안시 서북구 직산읍 군수1길 11-1","36.894385","127.137859"
"F00876","씨유(CU) 천안직산본점","편의점","ST001","충청남도 천안시 서북구 직산읍 군수1길 23-1","36.894834","127.138892"
"F00877","길라네만찐도너츠","음식점","ST001","충청남도 천안시 서북구 성환읍 율금1길 215","36.903675","127.102576"
"F00878","남도식당","음식점","ST001","충청남도 천안시 서북구 직산읍 군수1길 109","36.898871","127.146315"
"F00879","성산한식뷔페","음식점","ST001","충청남도 천안시 서북구 직산읍 군수1길 109","36.898871","127.146315"
"F00880","성산정","음식점","ST001","충청남도 천안시 서북구 직산읍 군수1길 23-15","36.895185","127.139016"
"F00881","영진식당","음식점","ST001","충청남도 천안시 서북구 직산읍 군수1길 29","36.895383","127.139398"
"F00882","세븐일레븐천안성환두진점","편의점","ST001","충청남도 천안시 서북구 성환읍 율금1길 221-30","36.905658","127.101468"
"F00883","이마트24천안왕림길점","편의점","ST001","충청남도 천안시 서북구 성환읍 왕림길 253","36.925778","127.103100"
"F00884","율금리돈까스","음식점","ST001","충청남도 천안시 서북구 성환읍 율금1길 240","36.903312","127.105235"
"F00885","참사랑약국","약국","ST001","충청남도 천안시 서북구 성환읍 율금1길 291","36.897402","127.113936"
"F00886","꿀벌치킨","음식점","ST001","충청남도 천안시 서북구 직산읍 양당율금길 4-30","36.895003","127.124397"
"F00887","한잔해","음식점","ST001","충청남도 천안시 서북구 직산읍 양당율금길 4-30","36.895021","127.124464"
"F00888","언니밥상","음식점","ST001","충청남도 천안시 서북구 성환읍 왕지1길 255-34","36.920148","127.101319"
"F00889","민들레생삼겹살","음식점","ST001","충청남도 천안시 서북구 성환읍 율금1길 255","36.903743","127.106773"
"F00890","면채반","음식점","ST001","충청남도 천안시 서북구 성환읍 율금1길 262-10","36.903382","127.107176"
"F00891","민경이네손맛이랑","음식점","ST001","충청남도 천안시 서북구 성환읍 율금1길 259","36.903725","127.107255"
"F00892","배나무숲","음식점","ST001","충청남도 천안시 서북구 성환읍 성월수향길 123-1","36.929035","127.142444"
"F00893","세븐일레븐천안성환율금점","편의점","ST001","충청남도 천안시 서북구 성환읍 율금1길 291","36.904073","127.110656"
"F00894","팽고염소","음식점","ST001","충청남도 천안시 서북구 성환읍 매주1길 9","36.901216","127.137030"
"F00895","이레푸드","음식점","ST001","충청남도 천안시 서북구 성환읍 성환22길 17","36.931344","127.133548"
"F00896","노을","카페","ST001","충청남도 천안시 서북구 성환읍 성환1로 50","36.900175","127.132921"
"F00897","이마트24천안성환","편의점","ST001","충청남도 천안시 서북구 성환읍 율금1길 307","36.904450","127.112463"
"F00898","장수촌","음식점","ST001","충청남도 천안시 서북구 성환읍 천안대로 1827","36.901587","127.135661"
"F00899","촌장꺼먹돼지","음식점","ST001","충청남도 천안시 서북구 성환읍 천안대로 1827","36.901587","127.135661"
"F00900","스카이스터디카페","카페","ST001","충청남도 천안시 서북구 성환읍 성환1로 54-45","36.901149","127.132261"
"F00901","지에스25성환","편의점","ST001","충청남도 천안시 서북구 성환읍 성환1로 54-45","36.901149","127.132261"
"F00902","대통한식뷔페","음식점","ST001","충청남도 천안시 서북구 성환읍 율금1길 328","36.904881","127.113978"
"F00903","대학식당","음식점","ST001","충청남도 천안시 서북구 성환읍 성진로 86","36.911335","127.144959"
"F00904","부대통령남","음식점","ST001","충청남도 천안시 서북구 성환읍 성진로 86","36.911335","127.144959"
"F00905","진라쿵푸마라탕","음식점","ST001","충청남도 천안시 서북구 성환읍 성진로 86","36.911335","127.144959"
"F00906","일월십사일남","카페","ST001","충청남도 천안시 서북구 성환읍 성진로 86","36.911335","127.144959"
"F00907","한아름푸드","음식점","ST001","충청남도 천안시 서북구 성환읍 성환22길 1-18","36.929822","127.131974"
"F00908","꼬망또레","음식점","ST001","충청남도 천안시 서북구 성환읍 천안대로 1843","36.902813","127.135394"
"F00909","더조은하루","음식점","ST001","충청남도 천안시 서북구 성환읍 천안대로 1843","36.902813","127.135394"
"F00910","율금교차로카페","음식점","ST001","충청남도 천안시 서북구 성환읍 연암율금로 315","36.905241","127.114472"
"F00911","소중한한끼","음식점","ST001","충청남도 천안시 서북구 성환읍 성진로 80-6","36.911191","127.144330"
"F00912","메가커피남","카페","ST001","충청남도 천안시 서북구 성환읍 성진로 80-6","36.911191","127.144330"
"F00913","GS25남서울","편의점","ST001","충청남도 천안시 서북구 성환읍 성진로 80-6","36.911191","127.144330"
"F00914","달봉이치킨천안성환점","음식점","ST001","충청남도 천안시 서북구 성환읍 매주2길 82","36.901737","127.130860"
"F00915","올리브약국","약국","ST001","충청남도 천안시 서북구 성환읍 연암율금로 508, 103호","36.904289","127.137373"
"F00916","동민목장","카페","ST001","충청남도 천안시 서북구 성환읍 왕림길 154","36.919059","127.109791"
"F00917","꾸이한끼남","음식점","ST001","충청남도 천안시 서북구 성환읍 대학로 91","36.910913","127.143611"
"F00918","바른중심에프앤비","음식점","ST001","충청남도 천안시 서북구 성환읍 대학로 91","36.910913","127.143611"
"F00919","버거운버거남","음식점","ST001","충청남도 천안시 서북구 성환읍 대학로 91","36.910913","127.143611"
"F00920","브레댄코남","음식점","ST001","충청남도 천안시 서북구 성환읍 대학로 91","36.910913","127.143611"
"F00921","숑숑돈가스남","음식점","ST001","충청남도 천안시 서북구 성환읍 대학로 91","36.910913","127.143611"
"F00922","언덕뜰소반","음식점","ST001","충청남도 천안시 서북구 성환읍 대학로 91","36.910913","127.143611"
"F00923","제이씨푸드시스템주","음식점","ST001","충청남도 천안시 서북구 성환읍 대학로 91","36.910913","127.143611"
"F00924","한우사골마라탕","음식점","ST001","충청남도 천안시 서북구 성환읍 대학로 91","36.910913","127.143611"
"F00925","그라찌에남","카페","ST001","충청남도 천안시 서북구 성환읍 대학로 91","36.910913","127.143611"
"F00926","더드림","카페","ST001","충청남도 천안시 서북구 성환읍 대학로 91","36.910913","127.143611"
"F00927","블루포트남서울대학교점","카페","ST001","충청남도 천안시 서북구 성환읍 대학로 91","36.910913","127.143611"
"F00928","제이씨푸드시스템CU남서울대생활관점","편의점","ST001","충청남도 천안시 서북구 성환읍 대학로 91","36.910913","127.143611"
"F00929","제이씨푸드시스템CU편의점마트","편의점","ST001","충청남도 천안시 서북구 성환읍 대학로 91","36.910913","127.143611"
"F00930","부뚜막손두부","음식점","ST001","충청남도 천안시 서북구 성환읍 성환1로 78-2","36.902277","127.130849"
"F00931","성환실비왕족발","음식점","ST001","충청남도 천안시 서북구 성환읍 성환1로 54-46","36.902529","127.131557"
"F00932","우림관화로구이","음식점","ST001","충청남도 천안시 서북구 성환읍 성환1로 54-46","36.902529","127.131557"
"F00933","힐링호프","음식점","ST001","충청남도 천안시 서북구 성환읍 성환1로 54-46","36.902529","127.131557"
"F00934","아워홈희성폴리머","음식점","ST001","충청남도 천안시 서북구 성환읍 천안대로 2131","36.929031","127.130446"
"F00935","하나산업개발투데이베이커리","카페","ST001","충청남도 천안시 서북구 성환읍 성환1로 89","36.902666","127.129268"
"F00936","투다리남","음식점","ST001","충청남도 천안시 서북구 성환읍 대학로 90-9","36.912275","127.142862"
"F00937","대패가1900(남서울대점)","음식점","ST001","충청남도 천안시 서북구 성환읍 성진로 65","36.911986","127.142648"
"F00938","맘스터치천안남","음식점","ST001","충청남도 천안시 서북구 성환읍 성진로 65","36.911986","127.142648"
"F00939","빅쭌부대찌개","음식점","ST001","충청남도 천안시 서북구 성환읍 성진로 65","36.911986","127.142648"
"F00940","얌샘남","음식점","ST001","충청남도 천안시 서북구 성환읍 성진로 65","36.911986","127.142648"
"F00941","태화루","음식점","ST001","충청남도 천안시 서북구 성환읍 성진로 65","36.911986","127.142648"
"F00942","공차천안남","카페","ST001","충청남도 천안시 서북구 성환읍 성진로 65","36.911986","127.142648"
"F00943","와따포차2호점남","음식점","ST001","충청남도 천안시 서북구 성환읍 대학로 90-13","36.912419","127.142705"
"F00944","씨부리또","음식점","ST001","충청남도 천안시 서북구 성환읍 성진로 64","36.911104","127.142131"
"F00945","포엠","PC방","ST001","충청남도 천안시 서북구 성환읍 성진로 63","36.911951","127.142480"
"F00946","봉구스밥버거천안남","음식점","ST001","충청남도 천안시 서북구 성환읍 성진로 63","36.911951","127.142480"
"F00947","압구정김밥","음식점","ST001","충청남도 천안시 서북구 성환읍 성진로 63","36.911951","127.142480"
"F00948","킹콩떡볶이남","음식점","ST001","충청남도 천안시 서북구 성환읍 성진로 63","36.911951","127.142480"
"F00949","꽃길","음식점","ST001","충청남도 천안시 서북구 성환읍 성진로 61","36.911924","127.142300"
"F00950","세븐일레븐천안뉴남","편의점","ST001","충청남도 천안시 서북구 성환읍 성진로 61","36.911924","127.142300"
"F00951","떡사랑","음식점","ST001","충청남도 천안시 서북구 성환읍 성환1로 78-47","36.903969","127.132771"
"F00952","자연식당","음식점","ST001","충청남도 천안시 서북구 성환읍 대학로 69","36.913455","127.142707"
"F00953","청춘","음식점","ST001","충청남도 천안시 서북구 성환읍 성진로 59","36.912005","127.142144"
"F00954","코나","음식점","ST001","충청남도 천안시 서북구 성환읍 성진로 59","36.912005","127.142144"
"F00955","도경솥뚜껑삼겹살","음식점","ST001","충청남도 천안시 서북구 성환읍 성환1로 78-49","36.904266","127.133186"
"F00956","마라탕&잡곡젠빙","음식점","ST001","충청남도 천안시 서북구 성환읍 성진로 57","36.911996","127.141964"
"F00957","빽다방천안남","카페","ST001","충청남도 천안시 서북구 성환읍 성진로 57","36.911996","127.141964"
"F00958","라지보울","음식점","ST001","충청남도 천안시 서북구 성환읍 성월1길 8","36.912429","127.141976"
"F00959","한결푸드","음식점","ST001","충청남도 천안시 서북구 성환읍 성환1로 389","36.927751","127.130736"
"F00960","남서울대이디아커피점","음식점","ST001","충청남도 천안시 서북구 성환읍 성진로 55","36.911969","127.141784"
"F00961","핫플","음식점","ST001","충청남도 천안시 서북구 성환읍 성진로 55","36.911969","127.141784"
"F00962","어부육지가","음식점","ST001","충청남도 천안시 서북구 성환읍 대학로 68","36.913222","127.142191"
"F00963","스테프핫도그남","음식점","ST001","충청남도 천안시 서북구 성환읍 성월1길 1","36.911979","127.141537"
"F00964","한솥도시락남","음식점","ST001","충청남도 천안시 서북구 성환읍 성월1길 1","36.911979","127.141537"
"F00965","집밥","음식점","ST001","충청남도 천안시 서북구 성환읍 성월1길 5","36.912321","127.141673"
"F00966","이브릭","카페","ST001","충청남도 천안시 서북구 성환읍 성환1로 375","36.927573","127.128928"
"F00967","식사를합시다","음식점","ST001","충청남도 천안시 서북구 성환읍 성진로 51","36.912006","127.141178"
"F00968","궁중추어탕","음식점","ST001","충청남도 천안시 서북구 성환읍 성환1로 390","36.927040","127.130443"
"F00969","밥앤롤","음식점","ST001","충청남도 천안시 서북구 성환읍 성월1길 7-9","36.912403","127.140809"
"F00970","카페리드","카페","ST001","충청남도 천안시 서북구 성환읍 성월1길 7-9","36.912403","127.140809"
"F00971","천성약국","약국","ST001","충청남도 천안시 서북구 성환읍 매주4길 26-8","36.905110","127.131335"
"F00972","카페톡톡","카페","ST001","충청남도 천안시 서북구 성환읍 학사촌1길 8","36.916954","127.140503"
"F00973","학사촌식당","음식점","ST001","충청남도 천안시 서북구 성환읍 학사촌2길 3","36.916513","127.140525"
"F00974","송덕한식뷔페","음식점","ST001","충청남도 천안시 서북구 성환읍 왕림길 49","36.911061","127.114862"
"F00975","또래호프","음식점","ST001","충청남도 천안시 서북구 성환읍 신방로 366","36.923845","127.118338"
"F00976","세븐일레븐천안성환대로점","편의점","ST001","충청남도 천안시 서북구 성환읍 신방로 366","36.923845","127.118338"
"F00977","이모네","음식점","ST001","충청남도 천안시 서북구 성환읍 와룡길 2","36.924033","127.118799"
"F00978","세븐일레븐남서울대성월점","편의점","ST001","충청남도 천안시 서북구 성환읍 성월2길 55","36.916315","127.140244"
"F00979","두꺼비식당","음식점","ST001","충청남도 천안시 서북구 성환읍 성월2길 53","36.916468","127.140222"
"F00980","명품수제카츠","음식점","ST001","충청남도 천안시 서북구 성환읍 성월2길 53","36.916468","127.140222"
"F00981","놀부네식당","음식점","ST001","충청남도 천안시 서북구 성환읍 신방로 370","36.923709","127.118686"
"F00982","공주집","음식점","ST001","충청남도 천안시 서북구 성환읍 송덕2길 113","36.923646","127.118843"
"F00983","남원추어탕","음식점","ST001","충청남도 천안시 서북구 성환읍 성환1로 346","36.925682","127.128095"
"F00984","성환반점","음식점","ST001","충청남도 천안시 서북구 성환읍 성진로 27","36.912226","127.138542"
"F00985","흥부네","음식점","ST001","충청남도 천안시 서북구 성환읍 성환1로 342-14","36.925456","127.128902"
"F00986","명품석구이","음식점","ST001","충청남도 천안시 서북구 성환읍 성환1로 342","36.925411","127.127959"
"F00987","명품어죽매운탕","음식점","ST001","충청남도 천안시 서북구 성환읍 성환1로 342","36.925411","127.127959"
"F00988","지에스25성환매주리점","편의점","ST001","충청남도 천안시 서북구 성환읍 매주5길 4","36.907984","127.119941"
"F00989","태조면옥","음식점","ST001","충청남도 천안시 서북구 성환읍 성환1로 135","36.906389","127.128085"
"F00990","정든약국","약국","ST001","충청남도 천안시 서북구 성환읍 성환2로 93, 영마트 1층","36.909002","127.135177"
"F00991","성환제일약국","약국","ST001","충청남도 천안시 서북구 성환읍 성환12길 45-8","36.910747","127.136680"
"F00992","영이네해장국","음식점","ST001","충청남도 천안시 서북구 성환읍 성월수향길 20-1","36.920635","127.136705"
"F00993","대박포차","음식점","ST001","충청남도 천안시 서북구 성환읍 성월2길 36","36.917227","127.138326"
"F00994","온다","음식점","ST001","충청남도 천안시 서북구 성환읍 성환18길 1","36.924763","127.127734"
"F00995","성환온누리약국","약국","ST001","충청남도 천안시 서북구 성환읍 성환11길 37","36.909884","127.135233"
"F00996","시골가마솥보신탕","음식점","ST001","충청남도 천안시 서북구 성환읍 연암율금로 384-1","36.908478","127.120884"
"F00997","양반골가든","음식점","ST001","충청남도 천안시 서북구 성환읍 성진로 8","36.911561","127.136397"
"F00998","준성유통","카페","ST001","충청남도 천안시 서북구 성환읍 성월수향길 14","36.920221","127.136155"
"F00999","수정약국","약국","ST001","충청남도 천안시 서북구 성환읍 성환1로 228-1","36.908311","127.131521"
"F01000","지에스25성환로얄점","편의점","ST001","충청남도 천안시 서북구 성환읍 송골1길 20","36.920059","127.135874"
"F01001","매주리커피","카페","ST001","충청남도 천안시 서북구 성환읍 성환18길 28","36.923616","127.129808"
"F01002","카페코발트","카페","ST001","충청남도 천안시 서북구 성환읍 연암율금로 512-10","36.911112","127.134938"
"F01003","한국수정사협회세종·충남도지회","음식점","ST001","충청남도 천안시 서북구 성환읍 연암율금로 393","36.909325","127.121649"
"F01004","카페이륜당성환점","카페","ST001","충청남도 천안시 서북구 성환읍 매주3길 3","36.909045","127.122322"
"F01005","성환문화약국","약국","ST001","충청남도 천안시 서북구 성환읍 성환12길 26","36.910545","127.133953"
"F01006","앤유PC푸드","PC방","ST001","충청남도 천안시 서북구 성환읍 성월2길 3-6","36.918816","127.135737"
"F01007","성일약국","약국","ST001","충청남도 천안시 서북구 성환읍 성환중앙로 36","36.910383","127.133354"
"F01008","쁘띠르뽀미에","음식점","ST001","충청남도 천안시 서북구 성환읍 연암율금로 508","36.911059","127.134130"
"F01009","국수기행성환점","음식점","ST001","충청남도 천안시 서북구 성환읍 성환2로 150-6","36.920151","127.134449"
"F01010","청산","음식점","ST001","충청남도 천안시 서북구 성환읍 대학로 7","36.914788","127.136145"
"F01011","용궁가든","음식점","ST001","충청남도 천안시 서북구 성환읍 연암율금로 399-7","36.909847","127.121751"
"F01012","성환이화약국","약국","ST001","충청남도 천안시 서북구 성환읍 성환1로 242","36.909492","127.131465"
"F01013","해와달","음식점","ST001","충청남도 천안시 서북구 성환읍 성환2로 148","36.920088","127.134269"
"F01014","한방왕족발","음식점","ST001","충청남도 천안시 서북구 성환읍 성환2로 146","36.919944","127.134201"
"F01015","진수성찬","음식점","ST001","충청남도 천안시 서북구 성환읍 성환16길 29-11","36.920422","127.133663"
"F01016","성환본가","음식점","ST001","충청남도 천안시 서북구 성환읍 성환1로 161","36.908885","127.128280"
"F01017","김평화의한우마을","음식점","ST001","충청남도 천안시 서북구 성환읍 천안대로 1978","36.915022","127.135719"
"F01018","굴비체머무르다","음식점","ST001","충청남도 천안시 서북구 성환읍 성환2로 140","36.919466","127.134268"
"F01019","화등다방","카페","ST001","충청남도 천안시 서북구 성환읍 신방로 510","36.920603","127.133013"
"F01020","해양회수산","음식점","ST001","충청남도 천안시 서북구 성환읍 성환2로 130-5","36.918745","127.134469"
"F01021","맛집","음식점","ST001","충청남도 천안시 서북구 성환읍 성환16길 29-8","36.919773","127.133651"
"F01022","신천안야식","음식점","ST001","충청남도 천안시 서북구 성환읍 성환16길 29-8","36.919773","127.133651"
"F01023","성환녹십자약국","약국","ST001","충청남도 천안시 서북구 성환읍 성환1로 248","36.910160","127.131339"
"F01024","우가돈가","음식점","ST001","충청남도 천안시 서북구 성환읍 신선동길 55","36.912051","127.133817"
"F01025","함지삼겹살","음식점","ST001","충청남도 천안시 서북구 성환읍 성환중앙로 81","36.919620","127.133707"
"F01026","도담","카페","ST001","충청남도 천안시 서북구 성환읍 성환중앙로 80","36.919404","127.133886"
"F01027","은성윤푸드","음식점","ST001","충청남도 천안시 서북구 성환읍 성환2로 19","36.909551","127.128976"
"F01028","성환원조닭내장","음식점","ST001","충청남도 천안시 서북구 성환읍 신선동길 54","36.911844","127.133402"
"F01029","청춘포차","음식점","ST001","충청남도 천안시 서북구 성환읍 신선동길 52","36.911997","127.133402"
"F01030","추억의연탄구이","음식점","ST001","충청남도 천안시 서북구 성환읍 신선동길 52","36.911997","127.133402"
"F01031","피자유니온성환점","음식점","ST001","충청남도 천안시 서북구 성환읍 신선동길 52","36.911997","127.133402"
"F01032","돌풍회수산","음식점","ST001","충청남도 천안시 서북구 성환읍 성환16길 25","36.919630","127.133281"
"F01033","먹빵야식","음식점","ST001","충청남도 천안시 서북구 성환읍 성환16길 25","36.919630","127.133281"
"F01034","청호수산","음식점","ST001","충청남도 천안시 서북구 성환읍 신선동길 51","36.912303","127.133560"
"F01035","깐깐한족발","음식점","ST001","충청남도 천안시 서북구 성환읍 성환2로 133","36.918980","127.133751"
"F01036","명성각","음식점","ST001","충청남도 천안시 서북구 성환읍 성환2로 133","36.918980","127.133751"
"F01037","신정골뼈해장국성환점","음식점","ST001","충청남도 천안시 서북구 성환읍 연암율금로 501","36.911871","127.133031"
"F01038","동백집","음식점","ST001","충청남도 천안시 서북구 성환읍 성환중앙로 76","36.919215","127.133291"
"F01039","장미안개꽃","음식점","ST001","충청남도 천안시 서북구 성환읍 성환중앙로 76","36.919215","127.133291"
"F01040","유진식당","음식점","ST001","충청남도 천안시 서북구 성환읍 성환1로 302","36.921717","127.128088"
"F01041","고기굽는대한민국","음식점","ST001","충청남도 천안시 서북구 성환읍 성환중앙로 66-15","36.918656","127.133604"
"F01042","또래오레","음식점","ST001","충청남도 천안시 서북구 성환읍 성환중앙로 66-15","36.918656","127.133604"
"F01043","지라난태국음식점","음식점","ST001","충청남도 천안시 서북구 성환읍 성환중앙로 66-15","36.918656","127.133604"
"F01044","명동칼국수","음식점","ST001","충청남도 천안시 서북구 성환읍 신방로 487","36.920939","127.130780"
"F01045","원조중앙탑막국수","음식점","ST001","충청남도 천안시 서북구 성환읍 신방로 490","36.920479","127.131363"
"F01046","길손","음식점","ST001","충청남도 천안시 서북구 성환읍 성환중앙로 72-1","36.919080","127.133010"
"F01047","명다방","카페","ST001","충청남도 천안시 서북구 성환읍 성환중앙로 72-1","36.919080","127.133010"
"F01048","복다방","카페","ST001","충청남도 천안시 서북구 성환읍 성환중앙로 72-1","36.919080","127.133010"
"F01049","앵콜노래클럽","음식점","ST001","충청남도 천안시 서북구 성환읍 성환중앙로 69-6","36.919306","127.132786"
"F01050","발라드호프","음식점","ST001","충청남도 천안시 서북구 성환읍 성환중앙로 71","36.919225","127.132820"
"F01051","서민포차","음식점","ST001","충청남도 천안시 서북구 성환읍 성환중앙로 71","36.919225","127.132820"
"F01052","옛날장터순대국밥(김밥)","음식점","ST001","충청남도 천안시 서북구 성환읍 성환중앙로 71","36.919225","127.132820"
"F01053","리피트","카페","ST001","충청남도 천안시 서북구 성환읍 성환중앙로 69","36.919153","127.132662"
"F01054","또또꼬마김밥","음식점","ST001","충청남도 천안시 서북구 성환읍 연암율금로 480","36.911297","127.131201"
"F01055","시월담","음식점","ST001","충청남도 천안시 서북구 성환읍 성환3로 54","36.914772","127.133912"
"F01056","참코다리","음식점","ST001","충청남도 천안시 서북구 성환읍 신선동길 43","36.912584","127.132640"
"F01057","정장군숯불구이","음식점","ST001","충청남도 천안시 서북구 성환읍 성환중앙로 66-3","36.918873","127.132729"
"F01058","굿뉴스","카페","ST001","충청남도 천안시 서북구 성환읍 신방로 479","36.920805","127.129714"
"F01059","성환순대두번째집","음식점","ST001","충청남도 천안시 서북구 성환읍 성환1로 293","36.921231","127.127279"
"F01060","골목식당","음식점","ST001","충청남도 천안시 서북구 성환읍 성환11길 59","36.915187","127.133811"
"F01061","놀부부대찌개앤흥부찜닭성환점","음식점","ST001","충청남도 천안시 서북구 성환읍 성환11길 59","36.915187","127.133811"
"F01062","성산골소주방","음식점","ST001","충청남도 천안시 서북구 성환읍 성환11길 59","36.915187","127.133811"
"F01063","춘천우미닭갈비구","음식점","ST001","충청남도 천안시 서북구 성환읍 성환11길 59","36.915187","127.133811"
"F01064","일월십사일","카페","ST001","충청남도 천안시 서북구 성환읍 성환12길 45-8","36.917476","127.133468"
"F01065","파리바게트천안성환점","음식점","ST001","충청남도 천안시 서북구 성환읍 성환12길 37","36.918008","127.133199"
"F01066","보리카페","음식점","ST001","충청남도 천안시 서북구 성환읍 성환중앙로 67","36.919099","127.132326"
"F01067","오쩜이엔푸드","음식점","ST001","충청남도 천안시 서북구 성환읍 성환11길 60","36.915106","127.133621"
"F01068","우실리","음식점","ST001","충청남도 천안시 서북구 성환읍 성환3로 52","36.914772","127.133553"
"F01069","만나식당","음식점","ST001","충청남도 천안시 서북구 성환읍 성환2로 33","36.910794","127.129169"
"F01070","풍년포차구이","음식점","ST001","충청남도 천안시 서북구 성환읍 성환3로 49","36.915061","127.133553"
"F01071","60계치킨천안성환점","음식점","ST001","충청남도 천안시 서북구 성환읍 연암율금로 478","36.911289","127.130405"
"F01072","오늘의귀한족발","음식점","ST001","충청남도 천안시 서북구 성환읍 연암율금로 478","36.911289","127.130405"
"F01073","꽃분이네꼬꼬마김밥","음식점","ST001","충청남도 천안시 서북구 성환읍 신방로 471","36.920779","127.128962"
"F01074","이태원식당","음식점","ST001","충청남도 천안시 서북구 성환읍 신방로 471","36.920779","127.128962"
"F01075","영창떡방앗간","음식점","ST001","충청남도 천안시 서북구 성환읍 성환중앙로 65","36.919036","127.132146"
"F01076","장미다방","음식점","ST001","충청남도 천안시 서북구 성환읍 성환3로 50","36.914800","127.133407"
"F01077","통로한식뷔페","음식점","ST001","충청남도 천안시 서북구 성환읍 성환12길 45-4","36.917314","127.133232"
"F01078","오리퓨전호프다방","음식점","ST001","충청남도 천안시 서북구 성환읍 성환중앙로 63-1","36.919009","127.132056"
"F01079","성환갈비살","음식점","ST001","충청남도 천안시 서북구 성환읍 성환3로 47-1","36.915115","127.133430"
"F01080","오늘하루","음식점","ST001","충청남도 천안시 서북구 성환읍 성환3로 47-1","36.915115","127.133430"
"F01081","성환생태전문","음식점","ST001","충청남도 천안시 서북구 성환읍 성환15길 4-13","36.919605","127.131305"
"F01082","팔공팔팔","음식점","ST001","충청남도 천안시 서북구 성환읍 성환3로 48-1","36.914800","127.133272"
"F01083","아구듬뿍알곤마니","음식점","ST001","충청남도 천안시 서북구 성환읍 성환12길 45-2","36.917179","127.133108"
"F01084","장호덕손만두","음식점","ST001","충청남도 천안시 서북구 성환읍 성환12길 45-2","36.917179","127.133108"
"F01085","성진떡방앗간","음식점","ST001","충청남도 천안시 서북구 성환읍 성환중앙로 64-1","36.918757","127.132112"
"F01086","팔팔식당","음식점","ST001","충청남도 천안시 서북구 성환읍 성환중앙로 64-1","36.918757","127.132112"
"F01087","교촌치킨성환점","음식점","ST001","충청남도 천안시 서북구 성환읍 연암율금로 472","36.911307","127.129810"
"F01088","더스토리피자","음식점","ST001","충청남도 천안시 서북구 성환읍 신방로 474","36.920436","127.129085"
"F01089","친구마차","음식점","ST001","충청남도 천안시 서북구 성환읍 신방로 474","36.920436","127.129085"
"F01090","훌랄라바베큐치킨성환점","음식점","ST001","충청남도 천안시 서북구 성환읍 신방로 474","36.920436","127.129085"
"F01091","수원갈비","음식점","ST001","충청남도 천안시 서북구 성환읍 성환11길 56","36.915458","127.133206"
"F01092","성환PC게임랜드","PC방","ST001","충청남도 천안시 서북구 성환읍 연암율금로 464","36.911245","127.129013"
"F01093","장수왕족발","음식점","ST001","충청남도 천안시 서북구 성환읍 성환2로 108","36.916963","127.132849"
"F01094","터미널분식","음식점","ST001","충청남도 천안시 서북구 성환읍 성환2로 108","36.916963","127.132849"
"F01095","왁자지껄","음식점","ST001","충청남도 천안시 서북구 성환읍 성환11길 47","36.915980","127.133027"
"F01096","마당발야식","음식점","ST001","충청남도 천안시 서북구 성환읍 신방로 466","36.920464","127.128131"
"F01097","시장떡방앗간","음식점","ST001","충청남도 천안시 서북구 성환읍 신방로 466","36.920464","127.128131"
"F01098","또바기","음식점","ST001","충청남도 천안시 서북구 성환읍 성환3로 45","36.915143","127.132936"
"F01099","황주골해장국","음식점","ST001","충청남도 천안시 서북구 성환읍 성환11길 45","36.916197","127.132938"
"F01100","막창이네","음식점","ST001","충청남도 천안시 서북구 성환읍 성환11길 48","36.915800","127.132937"
"F01101","세븐일레븐성환이화","편의점","ST001","충청남도 천안시 서북구 성환읍 성환15길 4","36.919488","127.130621"
"F01102","이가네쌈싸먹는김치찌개","음식점","ST001","충청남도 천안시 서북구 성환읍 성환2로 45","36.911821","127.130136"
"F01103","일구팔칠","음식점","ST001","충청남도 천안시 서북구 성환읍 성환11길 43","36.916278","127.132848"
"F01104","만석꾼","음식점","ST001","충청남도 천안시 서북구 성환읍 종합시장길 33","36.920211","127.128770"
"F01105","시골오리하우스","음식점","ST001","충청남도 천안시 서북구 성환읍 종합시장길 33","36.920211","127.128770"
"F01106","신참떡볶이천안성환점","음식점","ST001","충청남도 천안시 서북구 성환읍 성환2로 104","36.916603","127.132748"
"F01107","터미널다방","카페","ST001","충청남도 천안시 서북구 성환읍 성환2로 104","36.916603","127.132748"
"F01108","직화불쭈꾸미고기랑찌개랑","음식점","ST001","충청남도 천안시 서북구 성환읍 성환3로 43","36.915179","127.132745"
"F01109","시장야식","음식점","ST001","충청남도 천안시 서북구 성환읍 성환중앙로 58-1","36.918613","127.131517"
"F01110","보리밥집","음식점","ST001","충청남도 천안시 서북구 성환읍 종합시장길 24","36.919805","127.129622"
"F01111","순대랑곱창","음식점","ST001","충청남도 천안시 서북구 성환읍 종합시장길 22-1","36.919660","127.129947"
"F01112","지에스25성환","편의점","ST001","충청남도 천안시 서북구 성환읍 성환3로 42","36.914963","127.132610"
"F01113","로로삼계탕","음식점","ST001","충청남도 천안시 서북구 성환읍 신선동길 31","36.912991","127.131462"
"F01114","계림촌","음식점","ST001","충청남도 천안시 서북구 성환읍 성환4길 12","36.912055","127.130181"
"F01115","부산떡방아간","음식점","ST001","충청남도 천안시 서북구 성환읍 성환중앙로 58","36.918559","127.131427"
"F01116","우리집식탁","음식점","ST001","충청남도 천안시 서북구 성환읍 종합시장길 22","36.919715","127.129678"
"F01117","아재불닭발","음식점","ST001","충청남도 천안시 서북구 성환읍 성환3로 41","36.915359","127.132544"
"F01118","인생닭발","음식점","ST001","충청남도 천안시 서북구 성환읍 성환3로 41","36.915359","127.132544"
"F01119","푸드향","음식점","ST001","충청남도 천안시 서북구 성환읍 연암율금로 431","36.911809","127.124593"
"F01120","전이랑술이랑","음식점","ST001","충청남도 천안시 서북구 성환읍 성환2로 100","36.916098","127.132545"
"F01121","김밥나라","음식점","ST001","충청남도 천안시 서북구 성환읍 성환2로 105","36.916711","127.132389"
"F01122","롯데리아성환점","음식점","ST001","충청남도 천안시 서북구 성환읍 성환2로 105","36.916711","127.132389"
"F01123","행복한복죽","음식점","ST001","충청남도 천안시 서북구 성환읍 성환2로 105","36.916711","127.132389"
"F01124","빽다방천안성환","카페","ST001","충청남도 천안시 서북구 성환읍 성환2로 105","36.916711","127.132389"
"F01125","기영이숯불두마리치킨천안성환점","음식점","ST001","충청남도 천안시 서북구 성환읍 성환3로 40","36.914909","127.132397"
"F01126","노란곰돌이PC","PC방","ST001","충청남도 천안시 서북구 성환읍 성환1로 190","36.911633","127.128655"
"F01127","더국수","음식점","ST001","충청남도 천안시 서북구 성환읍 성환1로 190","36.911633","127.128655"
"F01128","옛날통닭","음식점","ST001","충청남도 천안시 서북구 성환읍 성환1로 190","36.911633","127.128655"
"F01129","기가찬참숯민물장어성환점","음식점","ST001","충청남도 천안시 서북구 성환읍 성환2로 68","36.913495","127.131654"
"F01130","웰빙토종순대","음식점","ST001","충청남도 천안시 서북구 성환읍 성환3로 39","36.915251","127.132398"
"F01131","봉수아피자","음식점","ST001","충청남도 천안시 서북구 성환읍 성환2로 72","36.913675","127.131710"
"F01132","성환순대두번째집","음식점","ST001","충청남도 천안시 서북구 성환읍 성환시장길 8-13","36.919011","127.130541"
"F01133","첫번째국밥집","음식점","ST001","충청남도 천안시 서북구 성환읍 성환시장길 8-13","36.919011","127.130541"
"F01134","피자스쿨천안성환점","음식점","ST001","충청남도 천안시 서북구 성환읍 성환2로 107","36.917063","127.132143"
"F01135","메가엠지씨커피성환","카페","ST001","충청남도 천안시 서북구 성환읍 성환11길 39","36.916522","127.132276"
"F01136","크레마","카페","ST001","충청남도 천안시 서북구 성환읍 성환2로 86","36.914909","127.132240"
"F01137","GS25 성환퍼스트점","편의점","ST001","충청남도 천안시 서북구 성환읍 신선동길 26","36.912649","127.130609"
"F01138","굽네치킨천안성환점","음식점","ST001","충청남도 천안시 서북구 성환읍 성환3로 38","36.915026","127.132251"
"F01139","정원곱창","음식점","ST001","충청남도 천안시 서북구 성환읍 성환2로 90","36.915414","127.132297"
"F01140","지코바성환","음식점","ST001","충청남도 천안시 서북구 성환읍 성환2로 90","36.915414","127.132297"
"F01141","장안곰탕","음식점","ST001","충청남도 천안시 서북구 성환읍 성환시장길 15-14","36.919426","127.129622"
"F01142","힐링캠프","음식점","ST001","충청남도 천안시 서북구 성환읍 성환중앙로 53-1","36.918470","127.131045"
"F01143","코끼리분식","음식점","ST001","충청남도 천안시 서북구 성환읍 성환11길 35-8","36.916847","127.132097"
"F01144","성환이화시장3번째집","음식점","ST001","충청남도 천안시 서북구 성환읍 성환시장길 8-9","36.918777","127.130664"
"F01145","엄니순대","음식점","ST001","충청남도 천안시 서북구 성환읍 성환시장길 8-9","36.918777","127.130664"
"F01146","원조국밥","음식점","ST001","충청남도 천안시 서북구 성환읍 성환시장길 8-9","36.918777","127.130664"
"F01147","할매국밥","음식점","ST001","충청남도 천안시 서북구 성환읍 성환시장길 8-9","36.918777","127.130664"
"F01148","세븐일레븐 천안성환터미널점","편의점","ST001","충청남도 천안시 서북구 성환읍 성환11길 40","36.916315","127.132141"
"F01149","세븐일레븐천안성환","편의점","ST001","충청남도 천안시 서북구 성환읍 성환11길 40","36.916315","127.132141"
"F01150","두마리찜닭두찜천안성환점","음식점","ST001","충청남도 천안시 서북구 성환읍 성환11길 37","36.916630","127.132018"
"F01151","할랄푸드","음식점","ST001","충청남도 천안시 서북구 성환읍 성환11길 37","36.916630","127.132018"
"F01152","소문난꼬마김밥","음식점","ST001","충청남도 천안시 서북구 성환읍 성환2로 63","36.913162","127.130879"
"F01153","땅스부대찌개42","음식점","ST001","충청남도 천안시 서북구 성환읍 성환2로 97","36.916045","127.132085"
"F01154","알러뷰마라탕","음식점","ST001","충청남도 천안시 서북구 성환읍 성환2로 97","36.916045","127.132085"
"F01155","맛순대","음식점","ST001","충청남도 천안시 서북구 성환읍 성환중앙로 51-6","36.918542","127.130675"
"F01156","등촌칼국수성환점","음식점","ST001","충청남도 천안시 서북구 성환읍 신선동길 22-1","36.912713","127.130227"
"F01157","다람쥐포차","음식점","ST001","충청남도 천안시 서북구 성환읍 성환1로 196","36.912021","127.128543"
"F01158","한뚝수육국밥","음식점","ST001","충청남도 천안시 서북구 성환읍 성환1로 196","36.912021","127.128543"
"F01159","부어치킨천안성환점","음식점","ST001","충청남도 천안시 서북구 성환읍 성환2로 89-1","36.915396","127.131949"
"F01160","수피자","음식점","ST001","충청남도 천안시 서북구 성환읍 성환2로 89-1","36.915396","127.131949"
"F01161","네네치킨앤봉구스밥버거성환점","음식점","ST001","충청남도 천안시 서북구 성환읍 신선동길 20","36.912776","127.130127"
"F01162","우순이돈순이정육식당","음식점","ST001","충청남도 천안시 서북구 성환읍 신선동길 20","36.912776","127.130127"
"F01163","웰컴포차","음식점","ST001","충청남도 천안시 서북구 성환읍 신선동길 20","36.912776","127.130127"
"F01164","조박사","음식점","ST001","충청남도 천안시 서북구 성환읍 신선동길 20","36.912776","127.130127"
"F01165","산마백숙가든","음식점","ST001","충청남도 천안시 서북구 성환읍 연암율금로 435-11","36.911896","127.126736"
"F01166","페리카나통닭","음식점","ST001","충청남도 천안시 서북구 성환읍 성환중앙로 49-2","36.918362","127.130619"
"F01167","내포장어촌","음식점","ST001","충청남도 천안시 서북구 성환읍 성환11길 36-4","36.916279","127.131827"
"F01168","양재기와주전자","음식점","ST001","충청남도 천안시 서북구 성환읍 성환11길 36-4","36.916279","127.131827"
"F01169","가장맛있는족발","음식점","ST001","충청남도 천안시 서북구 성환읍 신선동길 22","36.912884","127.130172"
"F01170","오복떡집","음식점","ST001","충청남도 천안시 서북구 성환읍 성환중앙로 49-6","36.918434","127.130428"
"F01171","장터보리밥","음식점","ST001","충청남도 천안시 서북구 성환읍 성환중앙로 49-6","36.918434","127.130428"
"F01172","여우다방","카페","ST001","충청남도 천안시 서북구 성환읍 성환중앙로 48-3","36.917893","127.130977"
"F01173","분식이이래도되는가","음식점","ST001","충청남도 천안시 서북구 성환읍 성환12길 29","36.917451","127.131290"
"F01174","연화갈비밀면","음식점","ST001","충청남도 천안시 서북구 성환읍 성환2로 91","36.915576","127.131736"
"F01175","스타PC방","PC방","ST001","충청남도 천안시 서북구 성환읍 성환1로 198","36.912237","127.128555"
"F01176","대복중화요리","음식점","ST001","충청남도 천안시 서북구 성환읍 성환중앙로 48-1","36.918010","127.130809"
"F01177","돈돼지","음식점","ST001","충청남도 천안시 서북구 성환읍 성환중앙로 49-1","36.918137","127.130573"
"F01178","민포카","음식점","ST001","충청남도 천안시 서북구 성환읍 성환중앙로 49-1","36.918137","127.130573"
"F01179","성환옛날국밥","음식점","ST001","충청남도 천안시 서북구 성환읍 성환시장길 13","36.918687","127.129845"
"F01180","푸라닭천안성환점","음식점","ST001","충청남도 천안시 서북구 성환읍 성환12길 27","36.917650","127.130965"
"F01181","소소한행복","음식점","ST001","충청남도 천안시 서북구 성환읍 성환11길 33-7","36.916685","127.131457"
"F01182","열화초불닭성환점","음식점","ST001","충청남도 천안시 서북구 성환읍 성환11길 34-3","36.916415","127.131524"
"F01183","뚝배기해장국","음식점","ST001","충청남도 천안시 서북구 성환읍 성환1로 272-8","36.919257","127.128275"
"F01184","제일분식","음식점","ST001","충청남도 천안시 서북구 성환읍 성환11길 33-12","36.916911","127.131289"
"F01185","처갓집양념치킨성환점","음식점","ST001","충청남도 천안시 서북구 성환읍 성환중앙로 47","36.918020","127.130495"
"F01186","스타","음식점","ST001","충청남도 천안시 서북구 성환읍 성환중앙로 49-5","36.918191","127.130270"
"F01187","오케이커피호프","음식점","ST001","충청남도 천안시 서북구 성환읍 성환중앙로 49-5","36.918191","127.130270"
"F01188","장터국밥우거지갈비탕","음식점","ST001","충청남도 천안시 서북구 성환읍 성환중앙로 49-5","36.918191","127.130270"
"F01189","본태커피하우스","카페","ST001","충청남도 천안시 서북구 성환읍 매주4길 30","36.912355","127.127668"
